,yelpid,name,image,url,latitude,longitude,address,phone,categories,transactions,rating,reviews
0,G9KdODINirmdSuYaBfBppA,Butcher & The Boar,https://s3-media1.fl.yelpcdn.com/bphoto/raQA0N0eKpTtW1kNPe6OcQ/o.jpg,https://www.yelp.com/biz/butcher-and-the-boar-minneapolis?adjust_creative=P1RJNSLd83EWzgeA0sG62A&utm_campaign=yelp_api_v3&utm_medium=api_v3_business_search&utm_source=P1RJNSLd83EWzgeA0sG62A,44.974777,-93.279792,"1121 Hennepin Ave Minneapolis, MN 55403",(612) 238-8888,"['American (New)', 'Beer Gardens', 'Venues & Event Spaces']",['delivery'],4.5,1616
1,zv_XJAQr9D3PNR5eHYhC5w,Bar La Grassa,https://s3-media2.fl.yelpcdn.com/bphoto/SKbCky2Pi-5KRQ6Fh9_anQ/o.jpg,https://www.yelp.com/biz/bar-la-grassa-minneapolis?adjust_creative=P1RJNSLd83EWzgeA0sG62A&utm_campaign=yelp_api_v3&utm_medium=api_v3_business_search&utm_source=P1RJNSLd83EWzgeA0sG62A,44.98954,-93.278594,"800 Washington Ave N Minneapolis, MN 55401",(612) 333-3837,"['Italian', 'Desserts', 'Wine Bars']",[],4.5,1253
2,6vaAze9Fxuco249L3BhEdQ,112 Eatery,https://s3-media2.fl.yelpcdn.com/bphoto/6oZdXEF7GovvyyJJVNpIVw/o.jpg,https://www.yelp.com/biz/112-eatery-minneapolis?adjust_creative=P1RJNSLd83EWzgeA0sG62A&utm_campaign=yelp_api_v3&utm_medium=api_v3_business_search&utm_source=P1RJNSLd83EWzgeA0sG62A,44.98267,-93.2716,"112 N 3rd St Minneapolis, MN 55401",(612) 343-7696,"['American (New)', 'Wine Bars', 'Venues & Event Spaces']",['delivery'],4.5,1165
3,5s2sT8ux7og5XfK-180r2g,George & The Dragon,https://s3-media3.fl.yelpcdn.com/bphoto/u7Pn5-JiRFNlZKtqSRGLPA/o.jpg,https://www.yelp.com/biz/george-and-the-dragon-minneapolis?adjust_creative=P1RJNSLd83EWzgeA0sG62A&utm_campaign=yelp_api_v3&utm_medium=api_v3_business_search&utm_source=P1RJNSLd83EWzgeA0sG62A,44.912151,-93.290436,"813 W 50th St Minneapolis, MN 55419",(612) 208-1047,"['American (New)', 'Pubs', 'British']","['pickup', 'delivery']",4.5,889
4,5olLs-K-_k_rWrrNLjvy0w,Spoon and Stable,https://s3-media2.fl.yelpcdn.com/bphoto/QaDSlgAElMPCB7dbtnkeIQ/o.jpg,https://www.yelp.com/biz/spoon-and-stable-minneapolis-4?adjust_creative=P1RJNSLd83EWzgeA0sG62A&utm_campaign=yelp_api_v3&utm_medium=api_v3_business_search&utm_source=P1RJNSLd83EWzgeA0sG62A,44.9854892917291,-93.2695363613423,"211 N 1st St Minneapolis, MN 55401",(612) 224-9850,"['American (New)', 'Bars']",['delivery'],4.5,893
5,g7bbpP7x5KAc33i7pgOkLA,Hell's Kitchen,https://s3-media2.fl.yelpcdn.com/bphoto/-OhWXyvg9912ki7k4eDMtg/o.jpg,https://www.yelp.com/biz/hells-kitchen-minneapolis?adjust_creative=P1RJNSLd83EWzgeA0sG62A&utm_campaign=yelp_api_v3&utm_medium=api_v3_business_search&utm_source=P1RJNSLd83EWzgeA0sG62A,44.97460605855,-93.2726155438114,"80 S 9th St Minneapolis, MN 55402",(612) 332-4700,"['American (New)', 'Breakfast & Brunch', 'Sandwiches']",['pickup'],4.0,2360
6,iH3FcZ4Xchx3s7fgIINaYg,Pizzeria Lola,https://s3-media4.fl.yelpcdn.com/bphoto/kEuCMg-6dsVl9_fq7XoWAg/o.jpg,https://www.yelp.com/biz/pizzeria-lola-minneapolis?adjust_creative=P1RJNSLd83EWzgeA0sG62A&utm_campaign=yelp_api_v3&utm_medium=api_v3_business_search&utm_source=P1RJNSLd83EWzgeA0sG62A,44.9018519553182,-93.3186280826087,"5557 Xerxes Ave S Minneapolis, MN 55410",(612) 424-8338,['Pizza'],['delivery'],4.5,1018
7,MDPv2B2jwA1qLvQCXlEVww,Red Cow - Minneapolis,https://s3-media3.fl.yelpcdn.com/bphoto/lb-i_7dGdN2OTMz0K8Jb_A/o.jpg,https://www.yelp.com/biz/red-cow-minneapolis-minneapolis-3?adjust_creative=P1RJNSLd83EWzgeA0sG62A&utm_campaign=yelp_api_v3&utm_medium=api_v3_business_search&utm_source=P1RJNSLd83EWzgeA0sG62A,44.9835380660176,-93.2696064205751,"208 N 1st Ave Minneapolis, MN 55401",(612) 238-0050,"['American (New)', 'Burgers', 'Pubs']",['delivery'],4.5,938
8,Dx52kVp9UBzI4LuL-J4TWA,Brasa Rotisserie,https://s3-media4.fl.yelpcdn.com/bphoto/4OZC_JveMh5-nmVsGbcF9w/o.jpg,https://www.yelp.com/biz/brasa-rotisserie-minneapolis?adjust_creative=P1RJNSLd83EWzgeA0sG62A&utm_campaign=yelp_api_v3&utm_medium=api_v3_business_search&utm_source=P1RJNSLd83EWzgeA0sG62A,44.989479,-93.251249,"600 E Hennepin Ave Minneapolis, MN 55414",(612) 379-3030,"['Southern', 'Caribbean', 'Soul Food']","['pickup', 'delivery']",4.5,970
9,OrvTXpV0N29ucP8QmxDC0Q,Zelo,https://s3-media2.fl.yelpcdn.com/bphoto/fcmBinkUxgufrk-dshaIlg/o.jpg,https://www.yelp.com/biz/zelo-minneapolis?adjust_creative=P1RJNSLd83EWzgeA0sG62A&utm_campaign=yelp_api_v3&utm_medium=api_v3_business_search&utm_source=P1RJNSLd83EWzgeA0sG62A,44.975065,-93.273613,"831 Nicollet Mall Minneapolis, MN 55402",(612) 333-7000,"['Italian', 'Seafood', 'American (Traditional)']","['pickup', 'delivery']",4.5,932
10,l7mNzyV3pOZ3m87jRY6J7A,Hola Arepa,https://s3-media3.fl.yelpcdn.com/bphoto/-TUdlWZPg2c-V0W8zbJdUw/o.jpg,https://www.yelp.com/biz/hola-arepa-minneapolis-4?adjust_creative=P1RJNSLd83EWzgeA0sG62A&utm_campaign=yelp_api_v3&utm_medium=api_v3_business_search&utm_source=P1RJNSLd83EWzgeA0sG62A,44.939423,-93.277406,"3501 Nicollet Ave Minneapolis, MN 55408",(612) 345-5583,"['Latin American', 'Salad', 'Breakfast & Brunch']",['delivery'],4.5,780
11,ErvVFzAYVArZS7gcWgY0rg,Matt's Bar,https://s3-media2.fl.yelpcdn.com/bphoto/neU_w8kGDw3_DSTmXSv_lw/o.jpg,https://www.yelp.com/biz/matts-bar-minneapolis?adjust_creative=P1RJNSLd83EWzgeA0sG62A&utm_campaign=yelp_api_v3&utm_medium=api_v3_business_search&utm_source=P1RJNSLd83EWzgeA0sG62A,44.9394683837891,-93.247428894043,"3500 Cedar Ave S Minneapolis, MN 55407",(612) 722-7072,"['Burgers', 'Dive Bars']",['delivery'],4.0,1543
12,G7iXpVSRuXzCbD2daJ_JYQ,Surly Brewing,https://s3-media4.fl.yelpcdn.com/bphoto/8adgL51sfhAnCjlFF1Nllw/o.jpg,https://www.yelp.com/biz/surly-brewing-minneapolis?adjust_creative=P1RJNSLd83EWzgeA0sG62A&utm_campaign=yelp_api_v3&utm_medium=api_v3_business_search&utm_source=P1RJNSLd83EWzgeA0sG62A,44.9732287,-93.2097663,"520 Malcolm Ave SE Minneapolis, MN 55414",(763) 535-3330,"['Breweries', 'Pizza']",[],4.0,1114
13,ZucUm6bBfhe0bHW4oyO-Dg,Chimborazo,https://s3-media4.fl.yelpcdn.com/bphoto/yCvzlgF8iaEzNCiS_o6ghA/o.jpg,https://www.yelp.com/biz/chimborazo-minneapolis?adjust_creative=P1RJNSLd83EWzgeA0sG62A&utm_campaign=yelp_api_v3&utm_medium=api_v3_business_search&utm_source=P1RJNSLd83EWzgeA0sG62A,45.0202859237582,-93.2470212131738,"2851 Central Ave Minneapolis, MN 55418",(612) 788-1328,['Latin American'],['delivery'],4.5,598
14,51E_-4s1wheqka5xtGAaNw,Martina,https://s3-media3.fl.yelpcdn.com/bphoto/r3BtWCY9NCfOweHPdN_y5Q/o.jpg,https://www.yelp.com/biz/martina-minneapolis?adjust_creative=P1RJNSLd83EWzgeA0sG62A&utm_campaign=yelp_api_v3&utm_medium=api_v3_business_search&utm_source=P1RJNSLd83EWzgeA0sG62A,44.9243,-93.31523,"4312 S Upton Ave Minneapolis, MN 55410",(612) 922-9913,"['Argentine', 'Cocktail Bars', 'Breakfast & Brunch']",['delivery'],4.5,480
15,5Y2nekkwRrNMMSx3b-2EhA,Young Joni,https://s3-media4.fl.yelpcdn.com/bphoto/LeyNsE9AYua2Tn7kTTWuxQ/o.jpg,https://www.yelp.com/biz/young-joni-minneapolis?adjust_creative=P1RJNSLd83EWzgeA0sG62A&utm_campaign=yelp_api_v3&utm_medium=api_v3_business_search&utm_source=P1RJNSLd83EWzgeA0sG62A,45.001101,-93.266682,"165 13th Ave NE Minneapolis, MN 55413",(612) 345-5719,"['Pizza', 'Cocktail Bars', 'Venues & Event Spaces']",['delivery'],4.5,671
16,rJY7EbVlXPXWgwojyEJq8w,Lotus Restaurant,https://s3-media1.fl.yelpcdn.com/bphoto/fUZ-XO6iqV5rmhbUXrUyxg/o.jpg,https://www.yelp.com/biz/lotus-restaurant-minneapolis-3?adjust_creative=P1RJNSLd83EWzgeA0sG62A&utm_campaign=yelp_api_v3&utm_medium=api_v3_business_search&utm_source=P1RJNSLd83EWzgeA0sG62A,44.96961,-93.27993,"113 W Grant St Minneapolis, MN 55403",(612) 870-1218,['Vietnamese'],['delivery'],4.5,722
17,5K82sS0qi4hCnNXzc0mM3A,Revival,https://s3-media1.fl.yelpcdn.com/bphoto/JkWblFghKi0DgZNUbvevcQ/o.jpg,https://www.yelp.com/biz/revival-minneapolis?adjust_creative=P1RJNSLd83EWzgeA0sG62A&utm_campaign=yelp_api_v3&utm_medium=api_v3_business_search&utm_source=P1RJNSLd83EWzgeA0sG62A,44.925208,-93.27771,"4257 Nicollet Ave Minneapolis, MN 55409",(612) 345-4516,"['Southern', 'Sandwiches', 'Bars']",[],4.0,991
18,NU-w3A68w-rG4o-VUryb7w,Red Cow,https://s3-media3.fl.yelpcdn.com/bphoto/hO5Hs95PgMscEmqYHSJxkw/o.jpg,https://www.yelp.com/biz/red-cow-minneapolis-7?adjust_creative=P1RJNSLd83EWzgeA0sG62A&utm_campaign=yelp_api_v3&utm_medium=api_v3_business_search&utm_source=P1RJNSLd83EWzgeA0sG62A,44.912706,-93.326139,"3624 W 50th St Minneapolis, MN 55410",(612) 767-4411,"['Burgers', 'Bars', 'American (New)']",['delivery'],4.5,750
19,Losq2H67kunQy6qQ6LFjmg,Quang Restaurant,https://s3-media3.fl.yelpcdn.com/bphoto/ik7rFFEYVb6AEpTs2cCSNA/o.jpg,https://www.yelp.com/biz/quang-restaurant-minneapolis?adjust_creative=P1RJNSLd83EWzgeA0sG62A&utm_campaign=yelp_api_v3&utm_medium=api_v3_business_search&utm_source=P1RJNSLd83EWzgeA0sG62A,44.953094,-93.277728,"2719 Nicollet Ave S Minneapolis, MN 55408",(612) 870-4739,"['Vietnamese', 'Sandwiches', 'Noodles']",['delivery'],4.0,1057
20,smrdXQyTcbqOHnK_OuScDw,My Huong Kitchen,https://s3-media4.fl.yelpcdn.com/bphoto/h5rLl9s1azqY1zG_08QBMg/o.jpg,https://www.yelp.com/biz/my-huong-kitchen-minneapolis?adjust_creative=P1RJNSLd83EWzgeA0sG62A&utm_campaign=yelp_api_v3&utm_medium=api_v3_business_search&utm_source=P1RJNSLd83EWzgeA0sG62A,44.9530173,-93.2780481,"2718 Nicollet Ave Ste 101B Minneapolis, MN 55408",(612) 872-2323,"['Vietnamese', 'Bubble Tea', 'Juice Bars & Smoothies']","['pickup', 'delivery']",4.5,367
21,-FQ05TKTVSFHcNPja2KvuA,Travail Kitchen & Amusements,https://s3-media2.fl.yelpcdn.com/bphoto/TdRObsrH0GpQqnqCOkkNAQ/o.jpg,https://www.yelp.com/biz/travail-kitchen-and-amusements-minneapolis?adjust_creative=P1RJNSLd83EWzgeA0sG62A&utm_campaign=yelp_api_v3&utm_medium=api_v3_business_search&utm_source=P1RJNSLd83EWzgeA0sG62A,44.96327,-93.2914,"1930 Hennepin Ave S Minneapolis, MN 55403",(763) 535-1131,['American (New)'],[],4.5,368
22,B7-6lvbEZqT87UW6ybNcJw,Manny's Steakhouse,https://s3-media4.fl.yelpcdn.com/bphoto/HVLBjDRxzGlm30KyjZR0aQ/o.jpg,https://www.yelp.com/biz/mannys-steakhouse-minneapolis?adjust_creative=P1RJNSLd83EWzgeA0sG62A&utm_campaign=yelp_api_v3&utm_medium=api_v3_business_search&utm_source=P1RJNSLd83EWzgeA0sG62A,44.97443,-93.27179,"825 Marquette Ave Minneapolis, MN 55402",(612) 339-9900,"['Steakhouses', 'Breakfast & Brunch', 'American (Traditional)']",['delivery'],4.0,810
23,zXAv5ul5nRJZp3AGq9BzKA,Broders' Pasta Bar,https://s3-media4.fl.yelpcdn.com/bphoto/eCPLfI92UAiMf2FUZgMj9A/o.jpg,https://www.yelp.com/biz/broders-pasta-bar-minneapolis?adjust_creative=P1RJNSLd83EWzgeA0sG62A&utm_campaign=yelp_api_v3&utm_medium=api_v3_business_search&utm_source=P1RJNSLd83EWzgeA0sG62A,44.91208,-93.30902,"5000 Penn Ave S Minneapolis, MN 55419",(612) 925-9202,"['Italian', 'Wine Bars']","['pickup', 'delivery']",4.5,516
24,BDfqDNyVp0fyDadZOTXEVw,Cafe Lurcat,https://s3-media4.fl.yelpcdn.com/bphoto/4fbOOdEjc1ZoIXSmyy_2qA/o.jpg,https://www.yelp.com/biz/cafe-lurcat-minneapolis-3?adjust_creative=P1RJNSLd83EWzgeA0sG62A&utm_campaign=yelp_api_v3&utm_medium=api_v3_business_search&utm_source=P1RJNSLd83EWzgeA0sG62A,44.9712313030077,-93.2863992847916,"1624 Harmon Pl Minneapolis, MN 55403",(612) 486-5500,"['American (New)', 'Bars']",['delivery'],4.5,466
25,Z9UFvaj_zeaVSg4Ta8D9qQ,Red Rabbit,https://s3-media4.fl.yelpcdn.com/bphoto/SfX46m1s-DtJCvXSn9g8wA/o.jpg,https://www.yelp.com/biz/red-rabbit-minneapolis?adjust_creative=P1RJNSLd83EWzgeA0sG62A&utm_campaign=yelp_api_v3&utm_medium=api_v3_business_search&utm_source=P1RJNSLd83EWzgeA0sG62A,44.983677,-93.2716188523742,"201 N Washington Ave Minneapolis, MN 55401",(612) 767-8855,"['Italian', 'Pizza', 'Bars']",['delivery'],4.5,526
26,aimyTOmIqdTOP6wF4dm30A,The Capital Grille,https://s3-media3.fl.yelpcdn.com/bphoto/oN6lT1iJDxkPUGRn6lvNog/o.jpg,https://www.yelp.com/biz/the-capital-grille-minneapolis?adjust_creative=P1RJNSLd83EWzgeA0sG62A&utm_campaign=yelp_api_v3&utm_medium=api_v3_business_search&utm_source=P1RJNSLd83EWzgeA0sG62A,44.9770069029009,-93.2759910821915,"801 Hennepin Ave Minneapolis, MN 55402",(612) 692-9000,"['Steakhouses', 'Seafood', 'Wine Bars']",[],4.5,326
27,uEQ-UJ6sj03MOGVYoWP2GQ,Alma,https://s3-media2.fl.yelpcdn.com/bphoto/yZtovh488TqYFIKHwegdHg/o.jpg,https://www.yelp.com/biz/alma-minneapolis?adjust_creative=P1RJNSLd83EWzgeA0sG62A&utm_campaign=yelp_api_v3&utm_medium=api_v3_business_search&utm_source=P1RJNSLd83EWzgeA0sG62A,44.98373,-93.24814,"528 University Ave SE Minneapolis, MN 55414",(612) 379-4909,"['Cafes', 'American (New)', 'Guest Houses']",['delivery'],4.5,522
28,IJUi7B11Ohxd0yxXMZbPUQ,Fogo de Chão Brazilian Steakhouse,https://s3-media1.fl.yelpcdn.com/bphoto/tGT4uDOXbFXr_pt5uLNj2A/o.jpg,https://www.yelp.com/biz/fogo-de-ch%C3%A3o-brazilian-steakhouse-minneapolis-9?adjust_creative=P1RJNSLd83EWzgeA0sG62A&utm_campaign=yelp_api_v3&utm_medium=api_v3_business_search&utm_source=P1RJNSLd83EWzgeA0sG62A,44.9780575369039,-93.2742076579676,"645 Hennepin Ave Minneapolis, MN 55403",(612) 338-1344,"['Brazilian', 'Steakhouses']",['delivery'],4.0,792
29,PXOyMIcQjZOlakLruK2BPQ,Victor's 1959 Cafe,https://s3-media2.fl.yelpcdn.com/bphoto/raJxuAhj0qiyPZu6USX2mQ/o.jpg,https://www.yelp.com/biz/victors-1959-cafe-minneapolis-3?adjust_creative=P1RJNSLd83EWzgeA0sG62A&utm_campaign=yelp_api_v3&utm_medium=api_v3_business_search&utm_source=P1RJNSLd83EWzgeA0sG62A,44.93423,-93.28462,"3756 Grand Ave S Minneapolis, MN 55409",(612) 827-8948,"['Cuban', 'Breakfast & Brunch']","['pickup', 'delivery']",4.0,576
30,L9-URJtUCfQu4DpDh-d6wQ,Smack Shack,https://s3-media4.fl.yelpcdn.com/bphoto/hd8KFp42hE-mhdUvvMjZ3A/o.jpg,https://www.yelp.com/biz/smack-shack-minneapolis-4?adjust_creative=P1RJNSLd83EWzgeA0sG62A&utm_campaign=yelp_api_v3&utm_medium=api_v3_business_search&utm_source=P1RJNSLd83EWzgeA0sG62A,44.9866669959331,-93.2762138294999,"603 N Washington Ave Minneapolis, MN 55401",(612) 259-7288,"['Seafood', 'American (Traditional)', 'Bars']",['delivery'],4.0,923
31,qgV2NGFS2ZL3JCwKTMkkPw,Birchwood Cafe,https://s3-media3.fl.yelpcdn.com/bphoto/aWsp6A6u_MqCHy9MXZkHKg/o.jpg,https://www.yelp.com/biz/birchwood-cafe-minneapolis-3?adjust_creative=P1RJNSLd83EWzgeA0sG62A&utm_campaign=yelp_api_v3&utm_medium=api_v3_business_search&utm_source=P1RJNSLd83EWzgeA0sG62A,44.95721,-93.2234,"3311 E 25th St Minneapolis, MN 55406",(612) 722-4474,"['Breakfast & Brunch', 'American (New)', 'Coffee & Tea']","['pickup', 'delivery']",4.0,628
32,C7Xg_fWiammvygwKKd4rJg,Lake & Irving,https://s3-media2.fl.yelpcdn.com/bphoto/wyhWCo1XbxfcPhhe2sctkw/o.jpg,https://www.yelp.com/biz/lake-and-irving-minneapolis?adjust_creative=P1RJNSLd83EWzgeA0sG62A&utm_campaign=yelp_api_v3&utm_medium=api_v3_business_search&utm_source=P1RJNSLd83EWzgeA0sG62A,44.948141,-93.301562,"1513 W Lake St Minneapolis, MN 55408",(612) 354-2453,"['American (New)', 'Bars']",['delivery'],4.5,392
33,73RMDet9463psTx8L5JI2Q,The Bachelor Farmer,https://s3-media2.fl.yelpcdn.com/bphoto/PQujkgeMq7x4HTXJpnJpLQ/o.jpg,https://www.yelp.com/biz/the-bachelor-farmer-minneapolis?adjust_creative=P1RJNSLd83EWzgeA0sG62A&utm_campaign=yelp_api_v3&utm_medium=api_v3_business_search&utm_source=P1RJNSLd83EWzgeA0sG62A,44.985718,-93.2687912,"50 N 2nd Ave Minneapolis, MN 55401",(612) 206-3920,['American (New)'],['delivery'],4.0,598
34,ykTnu3sVxnnIeHpLRqE8bQ,Hen House Eatery,https://s3-media4.fl.yelpcdn.com/bphoto/eaVCyCvJhVJTfkkjd42uRg/o.jpg,https://www.yelp.com/biz/hen-house-eatery-minneapolis?adjust_creative=P1RJNSLd83EWzgeA0sG62A&utm_campaign=yelp_api_v3&utm_medium=api_v3_business_search&utm_source=P1RJNSLd83EWzgeA0sG62A,44.9752558913143,-93.2713201229745,"114 S 8th St Minneapolis, MN 55402",(612) 345-4664,"['Breakfast & Brunch', 'American (Traditional)', 'Beer Bar']","['pickup', 'delivery']",4.0,797
35,51SWfc0I300IpUZcv7kCfA,Zen Box Izakaya,https://s3-media3.fl.yelpcdn.com/bphoto/p_OBEv5GmgpFK-FGIyuoEw/o.jpg,https://www.yelp.com/biz/zen-box-izakaya-minneapolis?adjust_creative=P1RJNSLd83EWzgeA0sG62A&utm_campaign=yelp_api_v3&utm_medium=api_v3_business_search&utm_source=P1RJNSLd83EWzgeA0sG62A,44.9784334,-93.2596172,"602 Washington Ave S Minneapolis, MN 55415",(612) 332-3936,"['Ramen', 'Izakaya', 'Tapas Bars']","['pickup', 'delivery']",4.0,623
36,fLFHwZe2DSgK98s3SKhWdw,Al's Breakfast,https://s3-media3.fl.yelpcdn.com/bphoto/uvne3MZOF5PlkSKciv_pew/o.jpg,https://www.yelp.com/biz/als-breakfast-minneapolis?adjust_creative=P1RJNSLd83EWzgeA0sG62A&utm_campaign=yelp_api_v3&utm_medium=api_v3_business_search&utm_source=P1RJNSLd83EWzgeA0sG62A,44.98101,-93.23565,"413 14th Ave SE Minneapolis, MN 55414",(612) 331-9991,"['Diners', 'Breakfast & Brunch']",[],4.0,508
37,tiXUs4dvnrP6EhrvX5Yl_Q,Town Talk Diner & Gastropub,https://s3-media1.fl.yelpcdn.com/bphoto/-7o1CBi9bqrVII1nEwxlzQ/o.jpg,https://www.yelp.com/biz/town-talk-diner-and-gastropub-minneapolis?adjust_creative=P1RJNSLd83EWzgeA0sG62A&utm_campaign=yelp_api_v3&utm_medium=api_v3_business_search&utm_source=P1RJNSLd83EWzgeA0sG62A,44.9481,-93.23273,"2707 E Lake St Minneapolis, MN 55406",(612) 353-5398,"['American (New)', 'Gastropubs', 'Cocktail Bars']",[],4.5,205
38,TRj1IbnWC7T5pGiTw6B4-w,World Street Kitchen,https://s3-media2.fl.yelpcdn.com/bphoto/Mc-1c_LKmSEYwbZ6UQlWtg/o.jpg,https://www.yelp.com/biz/world-street-kitchen-minneapolis-2?adjust_creative=P1RJNSLd83EWzgeA0sG62A&utm_campaign=yelp_api_v3&utm_medium=api_v3_business_search&utm_source=P1RJNSLd83EWzgeA0sG62A,44.952656,-93.287855,"2743 Lyndale Ave S Minneapolis, MN 55408",(612) 424-8855,"['Asian Fusion', 'Breakfast & Brunch', 'Sandwiches']",['delivery'],4.0,539
39,XQlAknWdrFAe-odzTSc_0Q,Burch Steak and Pizza Bar,https://s3-media1.fl.yelpcdn.com/bphoto/jxVggZ3g0Wz03f4-dYq2Tw/o.jpg,https://www.yelp.com/biz/burch-steak-and-pizza-bar-minneapolis?adjust_creative=P1RJNSLd83EWzgeA0sG62A&utm_campaign=yelp_api_v3&utm_medium=api_v3_business_search&utm_source=P1RJNSLd83EWzgeA0sG62A,44.9630224,-93.2916601,"1933 Colfax Ave S Minneapolis, MN 55403",(612) 843-1515,"['Steakhouses', 'Pizza', 'Desserts']",['delivery'],4.0,535
40,2IOQ8COCI7iiJX2OiCPtoQ,The Lowry,https://s3-media4.fl.yelpcdn.com/bphoto/jALJhVeXQEO9lUoU_xgt1g/o.jpg,https://www.yelp.com/biz/the-lowry-minneapolis?adjust_creative=P1RJNSLd83EWzgeA0sG62A&utm_campaign=yelp_api_v3&utm_medium=api_v3_business_search&utm_source=P1RJNSLd83EWzgeA0sG62A,44.961576,-93.292705,"2112 Hennepin Ave Minneapolis, MN 55405",(612) 341-2112,"['Bars', 'American (Traditional)', 'Breakfast & Brunch']","['pickup', 'delivery']",4.0,710
41,7qd98YA5vv0ASuXGjVvn0A,Patisserie 46,https://s3-media1.fl.yelpcdn.com/bphoto/T_GtibKlyFdykqjrpcUeUQ/o.jpg,https://www.yelp.com/biz/patisserie-46-minneapolis?adjust_creative=P1RJNSLd83EWzgeA0sG62A&utm_campaign=yelp_api_v3&utm_medium=api_v3_business_search&utm_source=P1RJNSLd83EWzgeA0sG62A,44.91975,-93.2848,"4552 Grand Ave S Minneapolis, MN 55419",(612) 354-3257,"['Bakeries', 'Coffee & Tea', 'Breakfast & Brunch']",['delivery'],4.5,343
42,RmHT3EhtGNmIBqMmn6sbcA,The Kenwood,https://s3-media2.fl.yelpcdn.com/bphoto/EhSpegsY9csU7weAGzoQZA/o.jpg,https://www.yelp.com/biz/the-kenwood-minneapolis?adjust_creative=P1RJNSLd83EWzgeA0sG62A&utm_campaign=yelp_api_v3&utm_medium=api_v3_business_search&utm_source=P1RJNSLd83EWzgeA0sG62A,44.9616050720215,-93.3080062866211,"2115 W 21st St Minneapolis, MN 55405",(612) 377-3695,"['American (New)', 'Breakfast & Brunch']",['pickup'],4.5,294
43,Cwya4QAu8R2ylFFQn9PJhw,The Anchor Fish & Chips,https://s3-media2.fl.yelpcdn.com/bphoto/O3P4xERkpRln9KzZYe6YBA/o.jpg,https://www.yelp.com/biz/the-anchor-fish-and-chips-minneapolis?adjust_creative=P1RJNSLd83EWzgeA0sG62A&utm_campaign=yelp_api_v3&utm_medium=api_v3_business_search&utm_source=P1RJNSLd83EWzgeA0sG62A,45.000844,-93.26438,"302 13th Ave NE Minneapolis, MN 55413",(612) 676-1300,['Fish & Chips'],['delivery'],4.0,564
44,kzzUiEHyf7LwRJ6DUx8Wyg,Our Kitchen,https://s3-media1.fl.yelpcdn.com/bphoto/sw8Za5AptYGL85JEOiFb9Q/o.jpg,https://www.yelp.com/biz/our-kitchen-minneapolis?adjust_creative=P1RJNSLd83EWzgeA0sG62A&utm_campaign=yelp_api_v3&utm_medium=api_v3_business_search&utm_source=P1RJNSLd83EWzgeA0sG62A,44.937556,-93.290202,"813 W 36th St Minneapolis, MN 55408",(612) 825-3718,"['Breakfast & Brunch', 'Diners']",['delivery'],4.5,301
45,83mW24NnFzdTlfbjQ4VXXQ,Tilia,https://s3-media2.fl.yelpcdn.com/bphoto/gZR9wwpvbzgaTqLNSTCrrg/o.jpg,https://www.yelp.com/biz/tilia-minneapolis?adjust_creative=P1RJNSLd83EWzgeA0sG62A&utm_campaign=yelp_api_v3&utm_medium=api_v3_business_search&utm_source=P1RJNSLd83EWzgeA0sG62A,44.92467,-93.31407,"2726 W 43rd St Minneapolis, MN 55410",(612) 354-2806,"['American (New)', 'Breakfast & Brunch']",['delivery'],4.0,619
46,uETQZ6X9HAGPzozGgqjtiQ,Gorkha Palace,https://s3-media4.fl.yelpcdn.com/bphoto/NCJvv7NSxd4sA7y-1XhJug/o.jpg,https://www.yelp.com/biz/gorkha-palace-minneapolis?adjust_creative=P1RJNSLd83EWzgeA0sG62A&utm_campaign=yelp_api_v3&utm_medium=api_v3_business_search&utm_source=P1RJNSLd83EWzgeA0sG62A,44.989277,-93.255079,"23 4th St NE Minneapolis, MN 55414",(612) 886-3451,"['Himalayan/Nepalese', 'Indian']","['pickup', 'delivery']",4.5,392
47,73rVjgI3z9__qKcHHRoAOw,Kramarczuk's Sausage Company,https://s3-media2.fl.yelpcdn.com/bphoto/pNz0g0m6R6gP8CLmXRQllw/o.jpg,https://www.yelp.com/biz/kramarczuks-sausage-company-minneapolis?adjust_creative=P1RJNSLd83EWzgeA0sG62A&utm_campaign=yelp_api_v3&utm_medium=api_v3_business_search&utm_source=P1RJNSLd83EWzgeA0sG62A,44.9879,-93.25739,"215 E Hennepin Ave Minneapolis, MN 55414",(612) 379-3018,"['Delis', 'Polish', 'Sandwiches']","['pickup', 'delivery']",4.0,391
48,52Sw9P9nW1-5yu6dZOpyeg,French Meadow Bakery & Cafe,https://s3-media1.fl.yelpcdn.com/bphoto/kC84oVKetiZRL4SEvJV7BA/o.jpg,https://www.yelp.com/biz/french-meadow-bakery-and-cafe-minneapolis-4?adjust_creative=P1RJNSLd83EWzgeA0sG62A&utm_campaign=yelp_api_v3&utm_medium=api_v3_business_search&utm_source=P1RJNSLd83EWzgeA0sG62A,44.9550656,-93.2882428,"2610 Lyndale Ave S Minneapolis, MN 55408",(612) 870-7855,"['American (New)', 'Breakfast & Brunch', 'Cafes']","['pickup', 'delivery']",4.0,813
49,8jLJGrAKL90O5z98ZNQ2bQ,Black Sheep Coal Fired Pizza,https://s3-media2.fl.yelpcdn.com/bphoto/Dh5rUxgY8g59nlUTS1OK_g/o.jpg,https://www.yelp.com/biz/black-sheep-coal-fired-pizza-minneapolis?adjust_creative=P1RJNSLd83EWzgeA0sG62A&utm_campaign=yelp_api_v3&utm_medium=api_v3_business_search&utm_source=P1RJNSLd83EWzgeA0sG62A,44.98731,-93.27571,"600 Washington Ave N Minneapolis, MN 55401",(612) 342-2625,"['Pizza', 'Cocktail Bars', 'Italian']","['pickup', 'delivery']",4.0,504
50,mTnoCM3BrLttWb7m9P5SQQ,Wakame Sushi & Asian Bistro,https://s3-media1.fl.yelpcdn.com/bphoto/_PG51jsjHsZMv0R_Xl4Nhg/o.jpg,https://www.yelp.com/biz/wakame-sushi-and-asian-bistro-minneapolis?adjust_creative=P1RJNSLd83EWzgeA0sG62A&utm_campaign=yelp_api_v3&utm_medium=api_v3_business_search&utm_source=P1RJNSLd83EWzgeA0sG62A,44.946802,-93.321968,"3070 Excelsior Blvd Minneapolis, MN 55416",(612) 886-2484,"['Sushi Bars', 'Japanese', 'Asian Fusion']",[],4.0,608
51,JexnInIgzaNMXwURrpOjSQ,Brit's Pub,https://s3-media4.fl.yelpcdn.com/bphoto/Se03IbuE8nhNpk4IlD2nUg/o.jpg,https://www.yelp.com/biz/brits-pub-minneapolis-4?adjust_creative=P1RJNSLd83EWzgeA0sG62A&utm_campaign=yelp_api_v3&utm_medium=api_v3_business_search&utm_source=P1RJNSLd83EWzgeA0sG62A,44.9729362,-93.2757548,"1110 Nicollet Mall Minneapolis, MN 55403",(612) 332-3908,"['Pubs', 'British', 'Venues & Event Spaces']",['delivery'],3.5,726
52,IexXk6fO4dCdaUXrP8XW-Q,El Taco Riendo,https://s3-media3.fl.yelpcdn.com/bphoto/EXmGjdeZsP4Mx8MfdkwdBw/o.jpg,https://www.yelp.com/biz/el-taco-riendo-minneapolis?adjust_creative=P1RJNSLd83EWzgeA0sG62A&utm_campaign=yelp_api_v3&utm_medium=api_v3_business_search&utm_source=P1RJNSLd83EWzgeA0sG62A,45.0126599,-93.24786,"2412 Central Ave NE Minneapolis, MN 55418",(612) 781-3000,['Mexican'],"['pickup', 'delivery']",4.0,419
53,G0ULL97D7OQvjPMpZxlscQ,Lu's Sandwiches,https://s3-media4.fl.yelpcdn.com/bphoto/zeIfrf4ZgrDYGuznRQG4kw/o.jpg,https://www.yelp.com/biz/lus-sandwiches-minneapolis-2?adjust_creative=P1RJNSLd83EWzgeA0sG62A&utm_campaign=yelp_api_v3&utm_medium=api_v3_business_search&utm_source=P1RJNSLd83EWzgeA0sG62A,44.95474,-93.2783199,"2624 Nicollet Ave S Minneapolis, MN 55408",(612) 870-0350,"['Vietnamese', 'Sandwiches', 'Fast Food']",['delivery'],4.0,338
54,H16j-AnU6QNcuNFgPNt2Sw,Pizza Luce,https://s3-media2.fl.yelpcdn.com/bphoto/ngJ_u2gUWQxT9gy8y7LhrQ/o.jpg,https://www.yelp.com/biz/pizza-luce-minneapolis-10?adjust_creative=P1RJNSLd83EWzgeA0sG62A&utm_campaign=yelp_api_v3&utm_medium=api_v3_business_search&utm_source=P1RJNSLd83EWzgeA0sG62A,44.9817201167802,-93.2734656415651,"119 N 4th St Minneapolis, MN 55401",(612) 333-7359,"['Pizza', 'Italian']",[],4.0,557
55,JV8Lpl_qThwGv-SFKJ_vaQ,Murray's,https://s3-media2.fl.yelpcdn.com/bphoto/-7_Q2h20gyKfe5zXtA6Nww/o.jpg,https://www.yelp.com/biz/murrays-minneapolis-2?adjust_creative=P1RJNSLd83EWzgeA0sG62A&utm_campaign=yelp_api_v3&utm_medium=api_v3_business_search&utm_source=P1RJNSLd83EWzgeA0sG62A,44.97863,-93.27234,"26 S 6th St Minneapolis, MN 55402",(612) 339-0909,"['Steakhouses', 'Lounges', 'American (Traditional)']",['delivery'],4.0,386
56,fYlgTzLNx6bcaKAiHMG2wQ,HAI HAI,https://s3-media4.fl.yelpcdn.com/bphoto/eJxoqg6Zi5uNJHP2AhnRtA/o.jpg,https://www.yelp.com/biz/hai-hai-minneapolis?adjust_creative=P1RJNSLd83EWzgeA0sG62A&utm_campaign=yelp_api_v3&utm_medium=api_v3_business_search&utm_source=P1RJNSLd83EWzgeA0sG62A,45.0098625272589,-93.2628971288361,"2121 University Ave NE Minneapolis, MN 55418",(612) 223-8640,"['Vietnamese', 'Thai', 'Pan Asian']",['delivery'],4.0,551
57,9EdftCquw0YwWY3XsJlZVg,Rinata,https://s3-media1.fl.yelpcdn.com/bphoto/AMohzpYzPHq8xcahMApX3Q/o.jpg,https://www.yelp.com/biz/rinata-minneapolis?adjust_creative=P1RJNSLd83EWzgeA0sG62A&utm_campaign=yelp_api_v3&utm_medium=api_v3_business_search&utm_source=P1RJNSLd83EWzgeA0sG62A,44.95763,-93.29485,"2451 Hennepin Ave Minneapolis, MN 55405",(612) 374-8998,"['Italian', 'French', 'Tapas/Small Plates']","['restaurant_reservation', 'delivery']",4.0,310
58,mdXoIXksYTiJhsYo-uknkQ,Maya Cuisine,https://s3-media4.fl.yelpcdn.com/bphoto/lom4d5IdWUoiZ0iqPcQUdA/o.jpg,https://www.yelp.com/biz/maya-cuisine-minneapolis?adjust_creative=P1RJNSLd83EWzgeA0sG62A&utm_campaign=yelp_api_v3&utm_medium=api_v3_business_search&utm_source=P1RJNSLd83EWzgeA0sG62A,45.00741,-93.24788,"1840 Central Ave NE Minneapolis, MN 55418",(612) 789-0775,['Mexican'],"['pickup', 'delivery']",4.0,373
59,FLknT5_ky5NI5Kt2ORjLpg,Parlour,https://s3-media2.fl.yelpcdn.com/bphoto/Pm365Y5uJXdTuyxIjN3y_w/o.jpg,https://www.yelp.com/biz/parlour-minneapolis?adjust_creative=P1RJNSLd83EWzgeA0sG62A&utm_campaign=yelp_api_v3&utm_medium=api_v3_business_search&utm_source=P1RJNSLd83EWzgeA0sG62A,44.9887299,-93.27772,"730 N Washington Ave Minneapolis, MN 55401",(612) 354-3135,"['American (New)', 'Cocktail Bars']",[],4.0,319
60,STv0cc5iZLlDT5b84XrjOg,The Freehouse,https://s3-media3.fl.yelpcdn.com/bphoto/hcvf4NBOLY8EqBajWlEVng/o.jpg,https://www.yelp.com/biz/the-freehouse-minneapolis?adjust_creative=P1RJNSLd83EWzgeA0sG62A&utm_campaign=yelp_api_v3&utm_medium=api_v3_business_search&utm_source=P1RJNSLd83EWzgeA0sG62A,44.98754,-93.27746,"701 N Washington Ave Ste 101 Minneapolis, MN 55401",(612) 339-7011,"['Breweries', 'Breakfast & Brunch', 'Cajun/Creole']","['pickup', 'delivery']",4.0,595
61,JKiMTabIY73IHKJzQUHdeQ,Punch Neapolitan Pizza - Lake Calhoun,https://s3-media2.fl.yelpcdn.com/bphoto/ZCMwpX9bVKIoCOEg7OyXaw/o.jpg,https://www.yelp.com/biz/punch-neapolitan-pizza-lake-calhoun-minneapolis-2?adjust_creative=P1RJNSLd83EWzgeA0sG62A&utm_campaign=yelp_api_v3&utm_medium=api_v3_business_search&utm_source=P1RJNSLd83EWzgeA0sG62A,44.9493934702166,-93.3204257686737,"3226 W Lake St Minneapolis, MN 55416",(612) 929-0006,['Pizza'],['delivery'],4.5,262
62,s7E_vOFsSVEsmIU5q9AvaA,Hot Plate,https://s3-media1.fl.yelpcdn.com/bphoto/bMAHsmpd7wTdOPnT1Ga-Og/o.jpg,https://www.yelp.com/biz/hot-plate-minneapolis?adjust_creative=P1RJNSLd83EWzgeA0sG62A&utm_campaign=yelp_api_v3&utm_medium=api_v3_business_search&utm_source=P1RJNSLd83EWzgeA0sG62A,44.90863,-93.25284,"5204 Bloomington Ave Minneapolis, MN 55417",(612) 824-4794,['Breakfast & Brunch'],"['pickup', 'delivery']",4.0,347
63,DU_qwbYqbMaJZxxl_CZ3gQ,Hazel's Northeast,https://s3-media3.fl.yelpcdn.com/bphoto/SMZwmze28VXXDwT8DkhpyQ/o.jpg,https://www.yelp.com/biz/hazels-northeast-minneapolis?adjust_creative=P1RJNSLd83EWzgeA0sG62A&utm_campaign=yelp_api_v3&utm_medium=api_v3_business_search&utm_source=P1RJNSLd83EWzgeA0sG62A,45.020324,-93.236869,"2859 Johnson St NE Minneapolis, MN 55418",(612) 788-4778,"['Breakfast & Brunch', 'American (Traditional)', 'Sandwiches']",[],4.0,414
64,cPgZaWUgM1pj3po6UAgtRw,Eggy's - Minneapolis,https://s3-media3.fl.yelpcdn.com/bphoto/aV2cVZNVP9P1HzOqDMG6zA/o.jpg,https://www.yelp.com/biz/eggys-minneapolis-minneapolis?adjust_creative=P1RJNSLd83EWzgeA0sG62A&utm_campaign=yelp_api_v3&utm_medium=api_v3_business_search&utm_source=P1RJNSLd83EWzgeA0sG62A,44.968917,-93.280511,"120 W 14th St Minneapolis, MN 55403",(763) 310-3449,"['Breakfast & Brunch', 'Diners', 'American (New)']","['pickup', 'delivery']",4.0,562
65,EWCzHNxTnXFsR8SfdNAqWQ,Icehouse,https://s3-media1.fl.yelpcdn.com/bphoto/-O0Y33kDB871zl3cQiBnTg/o.jpg,https://www.yelp.com/biz/icehouse-minneapolis?adjust_creative=P1RJNSLd83EWzgeA0sG62A&utm_campaign=yelp_api_v3&utm_medium=api_v3_business_search&utm_source=P1RJNSLd83EWzgeA0sG62A,44.9561920166016,-93.2783966064453,"2528 Nicollet Ave Minneapolis, MN 55404",(612) 276-6523,"['American (New)', 'Bars', 'Music Venues']",['delivery'],4.0,409
66,D5OfOpImhbZDqAeLCj7_RQ,Hi-Lo Diner,https://s3-media2.fl.yelpcdn.com/bphoto/rEEZXr2HXYbFWErdVLD7Qw/o.jpg,https://www.yelp.com/biz/hi-lo-diner-minneapolis?adjust_creative=P1RJNSLd83EWzgeA0sG62A&utm_campaign=yelp_api_v3&utm_medium=api_v3_business_search&utm_source=P1RJNSLd83EWzgeA0sG62A,44.94863,-93.21436,"4020 E Lake St Minneapolis, MN 55406",(612) 353-6568,"['Diners', 'Breakfast & Brunch', 'Ice Cream & Frozen Yogurt']",['delivery'],4.0,488
67,ZesuvK3U-6ZrMx8GK4rQGw,Himalayan Restaurant,https://s3-media2.fl.yelpcdn.com/bphoto/j8EPVASi3-W_gH-Jc_6cFg/o.jpg,https://www.yelp.com/biz/himalayan-restaurant-minneapolis-2?adjust_creative=P1RJNSLd83EWzgeA0sG62A&utm_campaign=yelp_api_v3&utm_medium=api_v3_business_search&utm_source=P1RJNSLd83EWzgeA0sG62A,44.94862,-93.22953,"2910 E Lake St Minneapolis, MN 55406",(612) 332-0880,"['Himalayan/Nepalese', 'Indian', 'Salad']",['delivery'],4.5,229
68,kLIRGu0p-j8ilVO-SfkWZw,Lands End Pasty Company,https://s3-media2.fl.yelpcdn.com/bphoto/enficcKNrAXrofjRaDNmUA/o.jpg,https://www.yelp.com/biz/lands-end-pasty-company-minneapolis?adjust_creative=P1RJNSLd83EWzgeA0sG62A&utm_campaign=yelp_api_v3&utm_medium=api_v3_business_search&utm_source=P1RJNSLd83EWzgeA0sG62A,44.980361,-93.236702,"1316 4th St SE Ste 7 Minneapolis, MN 55414",(612) 315-4175,"['British', 'Comfort Food']","['pickup', 'delivery']",5.0,123
69,23gPzE_k9BHnnLCUjhOYEg,The Lowbrow,https://s3-media3.fl.yelpcdn.com/bphoto/pp3XfKOM2CBpUXlLkcmfBQ/o.jpg,https://www.yelp.com/biz/the-lowbrow-minneapolis?adjust_creative=P1RJNSLd83EWzgeA0sG62A&utm_campaign=yelp_api_v3&utm_medium=api_v3_business_search&utm_source=P1RJNSLd83EWzgeA0sG62A,44.92542,-93.2783199,"4244 Nicollet Ave S Minneapolis, MN 55409",(612) 208-0720,"['Burgers', 'Breakfast & Brunch']",['delivery'],4.0,381
70,lX4qQzh6zm-DgwGWfESPJg,Clancey's Meats and Fish,https://s3-media3.fl.yelpcdn.com/bphoto/DMEuy5gZm9RBh9OxDqlusA/o.jpg,https://www.yelp.com/biz/clanceys-meats-and-fish-minneapolis?adjust_creative=P1RJNSLd83EWzgeA0sG62A&utm_campaign=yelp_api_v3&utm_medium=api_v3_business_search&utm_source=P1RJNSLd83EWzgeA0sG62A,44.924268,-93.3145185,"4307 Upton Ave S Minneapolis, MN 55410",(612) 926-0222,"['Meat Shops', 'Sandwiches', 'Butcher']",['delivery'],4.5,189
71,SnU5lrvBvNnLWl6fVcw4nQ,Chino Latino,https://s3-media2.fl.yelpcdn.com/bphoto/lB01MgNkVkvavgtL-dQ76w/o.jpg,https://www.yelp.com/biz/chino-latino-minneapolis?adjust_creative=P1RJNSLd83EWzgeA0sG62A&utm_campaign=yelp_api_v3&utm_medium=api_v3_business_search&utm_source=P1RJNSLd83EWzgeA0sG62A,44.94859,-93.29867,"2916 Hennepin Ave Minneapolis, MN 55408",(612) 824-7878,"['Lounges', 'Asian Fusion', 'Latin American']","['pickup', 'delivery']",3.5,788
72,bGT4lTagoIC6hd5PnCyltA,Colita,https://s3-media3.fl.yelpcdn.com/bphoto/lPILiP7i1NbIKWUeVv3-Ew/o.jpg,https://www.yelp.com/biz/colita-minneapolis?adjust_creative=P1RJNSLd83EWzgeA0sG62A&utm_campaign=yelp_api_v3&utm_medium=api_v3_business_search&utm_source=P1RJNSLd83EWzgeA0sG62A,44.90485,-93.309061,"5400 Penn Ave S Minneapolis, MN 55419",(612) 886-1606,"['New Mexican Cuisine', 'Barbeque']",['delivery'],4.5,246
73,WOl_WxiKJVwifVFkc_smFw,Muddy Waters,https://s3-media3.fl.yelpcdn.com/bphoto/bH34yUHYCyjcliJKKnxN9Q/o.jpg,https://www.yelp.com/biz/muddy-waters-minneapolis-2?adjust_creative=P1RJNSLd83EWzgeA0sG62A&utm_campaign=yelp_api_v3&utm_medium=api_v3_business_search&utm_source=P1RJNSLd83EWzgeA0sG62A,44.949225,-93.287714,"2933 Lyndale Ave S Minneapolis, MN 55408",(612) 872-2232,"['Bars', 'Coffee & Tea', 'American (New)']",['delivery'],4.0,449
74,opobJTJa9atqAytH80goDA,Barbette,https://s3-media2.fl.yelpcdn.com/bphoto/vnURJDOi7cSIVVU-ecZ2Bw/o.jpg,https://www.yelp.com/biz/barbette-minneapolis?adjust_creative=P1RJNSLd83EWzgeA0sG62A&utm_campaign=yelp_api_v3&utm_medium=api_v3_business_search&utm_source=P1RJNSLd83EWzgeA0sG62A,44.948498,-93.302242,"1600 W Lake St Minneapolis, MN 55408",(612) 827-5710,"['French', 'American (New)', 'Breakfast & Brunch']",['delivery'],4.0,582
75,XTD53AVRylnImME1acOTqg,Element Wood Fire Pizza,https://s3-media2.fl.yelpcdn.com/bphoto/j1ad_N-oJzt5flwBmwq-_w/o.jpg,https://www.yelp.com/biz/element-wood-fire-pizza-minneapolis?adjust_creative=P1RJNSLd83EWzgeA0sG62A&utm_campaign=yelp_api_v3&utm_medium=api_v3_business_search&utm_source=P1RJNSLd83EWzgeA0sG62A,44.9986018,-93.2676826,"96 Broadway St NE Minneapolis, MN 55413",(612) 379-3028,['Pizza'],['delivery'],4.5,237
76,jKZjxYqeIsdi1949cjRUKQ,Rincón 38,https://s3-media2.fl.yelpcdn.com/bphoto/gg3fSMX_uXNadelh__X8-Q/o.jpg,https://www.yelp.com/biz/rinc%C3%B3n-38-minneapolis-2?adjust_creative=P1RJNSLd83EWzgeA0sG62A&utm_campaign=yelp_api_v3&utm_medium=api_v3_business_search&utm_source=P1RJNSLd83EWzgeA0sG62A,44.933952331543,-93.284065246582,"3801 Grand Ave S Minneapolis, MN 55409",(612) 824-4052,"['Tapas/Small Plates', 'Spanish']",['delivery'],4.5,238
77,l-KdP47-UhMUX0A-CXaVxw,Trieste Café,https://s3-media1.fl.yelpcdn.com/bphoto/r-lvGobH1-Y3qwzXENVJmQ/o.jpg,https://www.yelp.com/biz/trieste-caf%C3%A9-minneapolis-2?adjust_creative=P1RJNSLd83EWzgeA0sG62A&utm_campaign=yelp_api_v3&utm_medium=api_v3_business_search&utm_source=P1RJNSLd83EWzgeA0sG62A,44.9791073,-93.2714257,"10 S 5th St Minneapolis, MN 55402",(612) 333-4658,"['Delis', 'Mediterranean', 'Greek']",['delivery'],4.5,141
78,vLTPr7QRPW05LhyyQ2HPxQ,Grand Café,https://s3-media1.fl.yelpcdn.com/bphoto/PrNgwsYS3Xs8J0wou4e3GA/o.jpg,https://www.yelp.com/biz/grand-caf%C3%A9-minneapolis-3?adjust_creative=P1RJNSLd83EWzgeA0sG62A&utm_campaign=yelp_api_v3&utm_medium=api_v3_business_search&utm_source=P1RJNSLd83EWzgeA0sG62A,44.933839,-93.284657,"3804 Grand Ave S Minneapolis, MN 55409",(612) 822-8260,"['French', 'Wine Bars', 'Desserts']","['pickup', 'delivery']",4.0,284
79,CMFEdxLaeYAI9Vf3NUQx4w,The Herbivorous Butcher,https://s3-media3.fl.yelpcdn.com/bphoto/C6zYOZs4x8AlH3OKALj1Wg/o.jpg,https://www.yelp.com/biz/the-herbivorous-butcher-minneapolis?adjust_creative=P1RJNSLd83EWzgeA0sG62A&utm_campaign=yelp_api_v3&utm_medium=api_v3_business_search&utm_source=P1RJNSLd83EWzgeA0sG62A,44.9902328,-93.2539668,"507 1st Ave NE Minneapolis, MN 55413",(612) 208-0992,"['Health Markets', 'Butcher', 'Vegan']","['pickup', 'delivery']",4.5,181
80,hHrpwrvEzlNDswECTcAcyg,Eli's Food & Cocktails,https://s3-media3.fl.yelpcdn.com/bphoto/eyNuEGR6k2zqoeZNZiNjJg/o.jpg,https://www.yelp.com/biz/elis-food-and-cocktails-minneapolis?adjust_creative=P1RJNSLd83EWzgeA0sG62A&utm_campaign=yelp_api_v3&utm_medium=api_v3_business_search&utm_source=P1RJNSLd83EWzgeA0sG62A,44.97419,-93.281344,"1225 Hennepin Ave Minneapolis, MN 55403",(612) 332-9997,"['American (Traditional)', 'Pubs']",['delivery'],4.0,309
81,dBRIlzRYdvAhSdxOTBVYyw,Galactic Pizza,https://s3-media3.fl.yelpcdn.com/bphoto/pb3ygUDQ3M-1bqTtYyEFpQ/o.jpg,https://www.yelp.com/biz/galactic-pizza-minneapolis?adjust_creative=P1RJNSLd83EWzgeA0sG62A&utm_campaign=yelp_api_v3&utm_medium=api_v3_business_search&utm_source=P1RJNSLd83EWzgeA0sG62A,44.9496574401855,-93.2876663208008,"2917 Lyndale Ave S Minneapolis, MN 55408",(612) 824-9100,"['Pizza', 'Vegan', 'Gluten-Free']","['pickup', 'delivery']",4.0,296
82,0wJTX6wwL7IqAsxDQK0jqA,Moroccan Flavors,https://s3-media3.fl.yelpcdn.com/bphoto/RCjFe6Dey3La8U_ynvU4gQ/o.jpg,https://www.yelp.com/biz/moroccan-flavors-minneapolis?adjust_creative=P1RJNSLd83EWzgeA0sG62A&utm_campaign=yelp_api_v3&utm_medium=api_v3_business_search&utm_source=P1RJNSLd83EWzgeA0sG62A,44.9492188827136,-93.2606295085205,"920 E Lake S Ste 126 Minneapolis, MN 55407",(651) 410-0361,"['Moroccan', 'Salad', 'Vegetarian']","['pickup', 'delivery']",4.5,113
83,I8CNZHuzqia4RO2DUaJKCQ,PinKU Japanese Street Food,https://s3-media2.fl.yelpcdn.com/bphoto/Z1yTXl3XoJnODvbj9K7CXQ/o.jpg,https://www.yelp.com/biz/pinku-japanese-street-food-minneapolis-4?adjust_creative=P1RJNSLd83EWzgeA0sG62A&utm_campaign=yelp_api_v3&utm_medium=api_v3_business_search&utm_source=P1RJNSLd83EWzgeA0sG62A,44.9882191402789,-93.2566113262305,"20 University Ave NE Minneapolis, MN 55413",(612) 584-3167,"['Japanese', 'Sushi Bars', 'Seafood']","['pickup', 'delivery']",4.5,230
84,vi58lz0GLWITkg_r0WieNg,Kbop Korean Bistro,https://s3-media2.fl.yelpcdn.com/bphoto/PgpVydfQLEog_-s5eXa0zw/o.jpg,https://www.yelp.com/biz/kbop-korean-bistro-minneapolis-6?adjust_creative=P1RJNSLd83EWzgeA0sG62A&utm_campaign=yelp_api_v3&utm_medium=api_v3_business_search&utm_source=P1RJNSLd83EWzgeA0sG62A,44.9819673599659,-93.2367731630802,"425 13th Ave SE Minneapolis, MN 55414",(612) 331-4993,['Korean'],"['pickup', 'delivery']",4.5,226
85,K9P6dLlPMyx7xs7fLQPiDw,Eat Street Social,https://s3-media3.fl.yelpcdn.com/bphoto/Rkl5G_elTiBC_ktaNWQfHQ/o.jpg,https://www.yelp.com/biz/eat-street-social-minneapolis?adjust_creative=P1RJNSLd83EWzgeA0sG62A&utm_campaign=yelp_api_v3&utm_medium=api_v3_business_search&utm_source=P1RJNSLd83EWzgeA0sG62A,44.9556549,-93.2783052,"18 W 26th St Minneapolis, MN 55404",(612) 767-6850,"['Bars', 'American (Traditional)', 'Breakfast & Brunch']","['restaurant_reservation', 'delivery']",4.0,410
86,UT7NmO7qrKwsGwb3gF7k8Q,Punch Neapolitan Pizza - Northeast,https://s3-media2.fl.yelpcdn.com/bphoto/_Z-bmawhXHqEm4dWwQrU1g/o.jpg,https://www.yelp.com/biz/punch-neapolitan-pizza-northeast-minneapolis?adjust_creative=P1RJNSLd83EWzgeA0sG62A&utm_campaign=yelp_api_v3&utm_medium=api_v3_business_search&utm_source=P1RJNSLd83EWzgeA0sG62A,44.9877749,-93.2569856,"210 E Hennepin Ave Minneapolis, MN 55414",(612) 623-8114,"['Pizza', 'Italian']",['delivery'],4.5,226
87,4EaAZzAKP6_z58rJusX7dw,Yum! Kitchen and Bakery,https://s3-media3.fl.yelpcdn.com/bphoto/cLo9N4Ppa1QQsuDoLQvDzQ/o.jpg,https://www.yelp.com/biz/yum-kitchen-and-bakery-minneapolis?adjust_creative=P1RJNSLd83EWzgeA0sG62A&utm_campaign=yelp_api_v3&utm_medium=api_v3_business_search&utm_source=P1RJNSLd83EWzgeA0sG62A,44.9487499,-93.33051,"4000 Minnetonka Blvd Minneapolis, MN 55416",(952) 922-4000,"['American (New)', 'Bakeries', 'Desserts']",['delivery'],4.0,450
88,kDfW47UHs-vY1UmFGocjnA,Psycho Suzi's Motor Lounge,https://s3-media2.fl.yelpcdn.com/bphoto/xUd5GrncLV7i2Z_qYmMUjQ/o.jpg,https://www.yelp.com/biz/psycho-suzis-motor-lounge-minneapolis-2?adjust_creative=P1RJNSLd83EWzgeA0sG62A&utm_campaign=yelp_api_v3&utm_medium=api_v3_business_search&utm_source=P1RJNSLd83EWzgeA0sG62A,45.0075263977051,-93.2722473144531,"1900 Marshall St NE Minneapolis, MN 55418",(612) 788-9069,"['Lounges', 'American (Traditional)', 'Breakfast & Brunch']",[],3.5,1025
89,0127hW6ScVMCOLCKJI6q9w,Stella's Fish Cafe & Prestige Oyster Bar,https://s3-media4.fl.yelpcdn.com/bphoto/Lx5gAk-TE3fOw5w1pGKYcg/o.jpg,https://www.yelp.com/biz/stellas-fish-cafe-and-prestige-oyster-bar-minneapolis-2?adjust_creative=P1RJNSLd83EWzgeA0sG62A&utm_campaign=yelp_api_v3&utm_medium=api_v3_business_search&utm_source=P1RJNSLd83EWzgeA0sG62A,44.9484949,-93.2972001,"1400 W Lake St Minneapolis, MN 55408",(612) 824-8862,"['Seafood', 'Fish & Chips', 'Sushi Bars']",['delivery'],3.5,875
90,thaViwJbk_1mNRDNb_nzng,The Lynhall,https://s3-media3.fl.yelpcdn.com/bphoto/ymtaZyUaBr_W1jzw5WtQAA/o.jpg,https://www.yelp.com/biz/the-lynhall-minneapolis-2?adjust_creative=P1RJNSLd83EWzgeA0sG62A&utm_campaign=yelp_api_v3&utm_medium=api_v3_business_search&utm_source=P1RJNSLd83EWzgeA0sG62A,44.9541376059716,-93.2884616122685,"2640 Lyndale Ave S Minneapolis, MN 55408",(612) 870-2640,"['Breakfast & Brunch', 'Seafood', 'Sandwiches']",['delivery'],4.0,230
91,eCcawIMRS3ShFnkqb0W05w,Firelake Grill House & Cocktail Bar,https://s3-media1.fl.yelpcdn.com/bphoto/cHsWvbkGSXkcDngAuwuruQ/o.jpg,https://www.yelp.com/biz/firelake-grill-house-and-cocktail-bar-minneapolis-2?adjust_creative=P1RJNSLd83EWzgeA0sG62A&utm_campaign=yelp_api_v3&utm_medium=api_v3_business_search&utm_source=P1RJNSLd83EWzgeA0sG62A,44.9773081942243,-93.2733502616307,"31 S 7th St Minneapolis, MN 55402",(612) 216-3473,"['American (Traditional)', 'Cocktail Bars', 'Breakfast & Brunch']","['pickup', 'delivery']",4.0,351
92,ddpjLv0P6iu7p1dRGCPWWw,Sushi Takatsu,https://s3-media1.fl.yelpcdn.com/bphoto/INnl1zTlX2kTpgTSiRyxQA/o.jpg,https://www.yelp.com/biz/sushi-takatsu-minneapolis?adjust_creative=P1RJNSLd83EWzgeA0sG62A&utm_campaign=yelp_api_v3&utm_medium=api_v3_business_search&utm_source=P1RJNSLd83EWzgeA0sG62A,44.9760103,-93.2709216,"733 Marquette Ave Ste 225 Minneapolis, MN 55402",(612) 339-5981,"['Sushi Bars', 'Seafood', 'Fast Food']",['delivery'],4.5,117
93,5Mby_93Hiztc2DkL-iaFvQ,The Copper Hen,https://s3-media1.fl.yelpcdn.com/bphoto/KUl11oPqrZJ-KLqfXTirEw/o.jpg,https://www.yelp.com/biz/the-copper-hen-minneapolis?adjust_creative=P1RJNSLd83EWzgeA0sG62A&utm_campaign=yelp_api_v3&utm_medium=api_v3_business_search&utm_source=P1RJNSLd83EWzgeA0sG62A,44.9566872,-93.2777087,"2515 Nicollet Ave Minneapolis, MN 55404",(612) 872-2221,"['American (New)', 'Bakeries', 'Desserts']",['delivery'],4.0,442
94,PiQICYa9PQH790gnCVoSyA,Cave Vin,https://s3-media2.fl.yelpcdn.com/bphoto/vyFy-jR_kfEQVYnh1IlwgQ/o.jpg,https://www.yelp.com/biz/cave-vin-minneapolis-3?adjust_creative=P1RJNSLd83EWzgeA0sG62A&utm_campaign=yelp_api_v3&utm_medium=api_v3_business_search&utm_source=P1RJNSLd83EWzgeA0sG62A,44.90186,-93.31845,"5555 Xerxes Ave S Minneapolis, MN 55410",(612) 922-0100,"['American (New)', 'Desserts']",[],4.5,190
95,9buJnS-Q6WBZx_5Dhk6XCA,The Oceanaire Seafood Room,https://s3-media1.fl.yelpcdn.com/bphoto/qp8hvQzZhmYxE-pBAPIgJA/o.jpg,https://www.yelp.com/biz/the-oceanaire-seafood-room-minneapolis-3?adjust_creative=P1RJNSLd83EWzgeA0sG62A&utm_campaign=yelp_api_v3&utm_medium=api_v3_business_search&utm_source=P1RJNSLd83EWzgeA0sG62A,44.978151,-93.271725,"50 S 6th St Minneapolis, MN 55402",(612) 333-2277,"['Seafood', 'Fish & Chips']",['delivery'],3.5,496
96,VDevoiSjX_ia2m8lSfzCxA,Pimento Jamaican Kitchen,https://s3-media1.fl.yelpcdn.com/bphoto/Kn8RxNRje1DEQPZbCuWi6Q/o.jpg,https://www.yelp.com/biz/pimento-jamaican-kitchen-minneapolis-2?adjust_creative=P1RJNSLd83EWzgeA0sG62A&utm_campaign=yelp_api_v3&utm_medium=api_v3_business_search&utm_source=P1RJNSLd83EWzgeA0sG62A,44.95643,-93.27839,"2524 Nicollet Ave S Minneapolis, MN 55404",(612) 345-5637,['Caribbean'],"['pickup', 'delivery']",4.0,305
97,aNY9AUIfDMSHBRksP6I32w,Common Roots Cafe,https://s3-media4.fl.yelpcdn.com/bphoto/EshvhvP9ThwPm8wanY8XJQ/o.jpg,https://www.yelp.com/biz/common-roots-cafe-minneapolis-5?adjust_creative=P1RJNSLd83EWzgeA0sG62A&utm_campaign=yelp_api_v3&utm_medium=api_v3_business_search&utm_source=P1RJNSLd83EWzgeA0sG62A,44.95569,-93.28846,"2558 Lyndale Ave S Minneapolis, MN 55405",(612) 871-2360,"['Breakfast & Brunch', 'American (New)', 'Cafes']",['delivery'],4.0,366
98,6T2SVQbBNZ-H0fjMQtV2rQ,Borough,https://s3-media1.fl.yelpcdn.com/bphoto/LbiXWDw11V2VbwUbZMOPbw/o.jpg,https://www.yelp.com/biz/borough-minneapolis?adjust_creative=P1RJNSLd83EWzgeA0sG62A&utm_campaign=yelp_api_v3&utm_medium=api_v3_business_search&utm_source=P1RJNSLd83EWzgeA0sG62A,44.988857,-93.277813,"730 N Washington Ave Minneapolis, MN 55401",(612) 354-3135,['American (New)'],[],4.0,309
99,Bel7hrQhVRW4A64hmZZC6Q,Band Box Diner,https://s3-media3.fl.yelpcdn.com/bphoto/BI3dosmoHcAoRO3Kog0dQA/o.jpg,https://www.yelp.com/biz/band-box-diner-minneapolis?adjust_creative=P1RJNSLd83EWzgeA0sG62A&utm_campaign=yelp_api_v3&utm_medium=api_v3_business_search&utm_source=P1RJNSLd83EWzgeA0sG62A,44.9690971374512,-93.2634582519531,"729 S 10th St Minneapolis, MN 55404",(612) 332-0850,"['Diners', 'Breakfast & Brunch', 'Burgers']","['pickup', 'delivery']",4.5,199
100,REaYq7UDUefZEj87KrKxQw,Modern Times Café,https://s3-media4.fl.yelpcdn.com/bphoto/AFAegcJXpkJH-XehOno2Zg/o.jpg,https://www.yelp.com/biz/modern-times-caf%C3%A9-minneapolis-2?adjust_creative=P1RJNSLd83EWzgeA0sG62A&utm_campaign=yelp_api_v3&utm_medium=api_v3_business_search&utm_source=P1RJNSLd83EWzgeA0sG62A,44.94457,-93.26301,"3200 Chicago Ave S Minneapolis, MN 55407",(612) 886-3882,"['Breakfast & Brunch', 'Burgers', 'Sandwiches']",['delivery'],4.0,235
101,zlKpigpu5_8yLXKrQmtlTA,Pho 79,https://s3-media1.fl.yelpcdn.com/bphoto/9SDmfiugU7rux_W2WRlsWg/o.jpg,https://www.yelp.com/biz/pho-79-minneapolis?adjust_creative=P1RJNSLd83EWzgeA0sG62A&utm_campaign=yelp_api_v3&utm_medium=api_v3_business_search&utm_source=P1RJNSLd83EWzgeA0sG62A,44.956333,-93.277473,"2529 Nicollet Ave Minneapolis, MN 55404",(612) 871-4602,['Vietnamese'],['delivery'],4.0,342
102,H2dkIvi_cgz-7UMJsQE-Kg,Red Cow Uptown,https://s3-media3.fl.yelpcdn.com/bphoto/POacXqEBEE2dxjqFUCLpaQ/o.jpg,https://www.yelp.com/biz/red-cow-uptown-minneapolis-2?adjust_creative=P1RJNSLd83EWzgeA0sG62A&utm_campaign=yelp_api_v3&utm_medium=api_v3_business_search&utm_source=P1RJNSLd83EWzgeA0sG62A,44.9546701713065,-93.2974524074069,"2626 Hennepin Ave Minneapolis, MN 55408",(612) 767-3547,"['Burgers', 'Beer Bar', 'American (Traditional)']",['delivery'],4.5,193
103,-MjBUPbr9QatqBI_tdGzfQ,FireBox Deli,https://s3-media4.fl.yelpcdn.com/bphoto/5qqwUqLCvwTpVEuBrydUlA/o.jpg,https://www.yelp.com/biz/firebox-deli-minneapolis?adjust_creative=P1RJNSLd83EWzgeA0sG62A&utm_campaign=yelp_api_v3&utm_medium=api_v3_business_search&utm_source=P1RJNSLd83EWzgeA0sG62A,45.04057,-93.28731,"4707 Lyndale Ave N Minneapolis, MN 55430",(612) 521-8206,['Barbeque'],"['delivery', 'pickup']",4.5,176
104,iFAws6DLmgypEGvsIh3liw,Holy Land,https://s3-media1.fl.yelpcdn.com/bphoto/ottyPDKbdwcEjkHPvuvJ0w/o.jpg,https://www.yelp.com/biz/holy-land-minneapolis-4?adjust_creative=P1RJNSLd83EWzgeA0sG62A&utm_campaign=yelp_api_v3&utm_medium=api_v3_business_search&utm_source=P1RJNSLd83EWzgeA0sG62A,45.0136833190918,-93.2468109130859,"2513 Central Ave NE Minneapolis, MN 55418",(612) 781-2627,"['Bakeries', 'Grocery', 'Middle Eastern']",['delivery'],4.0,283
105,Xnsa4CJMPqyHkyISgxrzxg,Peninsula Malaysian Cuisine,https://s3-media4.fl.yelpcdn.com/bphoto/4qOJ4G7nPxChlTHYJaTEwQ/o.jpg,https://www.yelp.com/biz/peninsula-malaysian-cuisine-minneapolis-2?adjust_creative=P1RJNSLd83EWzgeA0sG62A&utm_campaign=yelp_api_v3&utm_medium=api_v3_business_search&utm_source=P1RJNSLd83EWzgeA0sG62A,44.95511,-93.2783199,"2608 Nicollet Ave S Minneapolis, MN 55408",(612) 871-8282,['Malaysian'],['delivery'],4.0,319
106,VMUVhCMwPFFhnRp9EED8lA,Allie's Deli & Catering,https://s3-media2.fl.yelpcdn.com/bphoto/gqZ2It2DVmnL52A-R9ojVg/o.jpg,https://www.yelp.com/biz/allies-deli-and-catering-minneapolis?adjust_creative=P1RJNSLd83EWzgeA0sG62A&utm_campaign=yelp_api_v3&utm_medium=api_v3_business_search&utm_source=P1RJNSLd83EWzgeA0sG62A,44.9774226233328,-93.2697445128975,"527 Marquette Ave Ste 205 Minneapolis, MN 55402",(612) 333-6425,"['Delis', 'Sandwiches']",['delivery'],4.5,131
107,xoq8XRgV5f031ZI3aHrSFg,Ramen Kazama,https://s3-media1.fl.yelpcdn.com/bphoto/pX-QXMpR9lTruDph7b5S5A/o.jpg,https://www.yelp.com/biz/ramen-kazama-minneapolis?adjust_creative=P1RJNSLd83EWzgeA0sG62A&utm_campaign=yelp_api_v3&utm_medium=api_v3_business_search&utm_source=P1RJNSLd83EWzgeA0sG62A,44.9410781860352,-93.2781982421875,"3400 Nicollet Ave S Minneapolis, MN 55408",(612) 353-6160,['Ramen'],['delivery'],4.0,351
108,H0eHTMAwl43Zjou-rRNDtg,Red Stag Supperclub,https://s3-media1.fl.yelpcdn.com/bphoto/hN_sCb8gjzAM1s5R63Ad4A/o.jpg,https://www.yelp.com/biz/red-stag-supperclub-minneapolis-3?adjust_creative=P1RJNSLd83EWzgeA0sG62A&utm_campaign=yelp_api_v3&utm_medium=api_v3_business_search&utm_source=P1RJNSLd83EWzgeA0sG62A,44.990301,-93.253628,"509 1st Ave NE Minneapolis, MN 55413",(612) 767-7766,"['American (New)', 'Breakfast & Brunch', 'Venues & Event Spaces']",['delivery'],3.5,494
109,OXy8tz9HWiOK_fbh29TEGg,Boludo,https://s3-media4.fl.yelpcdn.com/bphoto/0E3KPLg6uUEdXf1S8r-sPg/o.jpg,https://www.yelp.com/biz/boludo-minneapolis-3?adjust_creative=P1RJNSLd83EWzgeA0sG62A&utm_campaign=yelp_api_v3&utm_medium=api_v3_business_search&utm_source=P1RJNSLd83EWzgeA0sG62A,44.9344688380649,-93.2778564810365,"3749 Nicollet Ave Minneapolis, MN 55409",(612) 965-2858,"['Empanadas', 'Gluten-Free', 'Pizza']",['delivery'],4.5,129
110,Tll050QQPiP01ey2or72CQ,Afro Deli,https://s3-media1.fl.yelpcdn.com/bphoto/eJy86FNWB2_yw86PyNPRCw/o.jpg,https://www.yelp.com/biz/afro-deli-minneapolis-6?adjust_creative=P1RJNSLd83EWzgeA0sG62A&utm_campaign=yelp_api_v3&utm_medium=api_v3_business_search&utm_source=P1RJNSLd83EWzgeA0sG62A,44.9734453,-93.2275231,"720 Washington Ave SE Minneapolis, MN 55414",(612) 871-5555,"['Sandwiches', 'Mediterranean', 'Somali']","['delivery', 'pickup']",4.5,185
111,7LYfwJHjeVr4_nBPHDTeMw,Kyatchi,https://s3-media1.fl.yelpcdn.com/bphoto/WvqLJCsb_loupFLEcjA6OQ/o.jpg,https://www.yelp.com/biz/kyatchi-minneapolis?adjust_creative=P1RJNSLd83EWzgeA0sG62A&utm_campaign=yelp_api_v3&utm_medium=api_v3_business_search&utm_source=P1RJNSLd83EWzgeA0sG62A,44.9343347,-93.2781296,"3758 Nicollet Ave Minneapolis, MN 55409",(612) 236-4429,"['Japanese', 'Sushi Bars']","['restaurant_reservation', 'delivery']",4.0,254
112,ubBPZz2CtTJcuFi00GSM2w,Tiny Diner,https://s3-media3.fl.yelpcdn.com/bphoto/U3et5MsqUep01VWKlobBug/o.jpg,https://www.yelp.com/biz/tiny-diner-minneapolis?adjust_creative=P1RJNSLd83EWzgeA0sG62A&utm_campaign=yelp_api_v3&utm_medium=api_v3_business_search&utm_source=P1RJNSLd83EWzgeA0sG62A,44.934393,-93.259061,"1024 E 38th St Minneapolis, MN 55407",(612) 767-3322,"['American (New)', 'Breakfast & Brunch', 'Diners']",['delivery'],4.0,329
113,lST5yvxDu2h1VWID27wrYA,ie Italian Eatery,https://s3-media2.fl.yelpcdn.com/bphoto/itthcKYIK5bt7b7OhhEOlg/o.jpg,https://www.yelp.com/biz/ie-italian-eatery-minneapolis?adjust_creative=P1RJNSLd83EWzgeA0sG62A&utm_campaign=yelp_api_v3&utm_medium=api_v3_business_search&utm_source=P1RJNSLd83EWzgeA0sG62A,44.91702,-93.24768,"4724 Cedar Ave S Minneapolis, MN 55407",(612) 223-8504,['Italian'],['delivery'],4.0,293
114,KOS_tbDcMv5O8ITb6xre8g,Sun Street Breads,https://s3-media4.fl.yelpcdn.com/bphoto/tDpMqoCXvhsVJ0tsIq4pxQ/o.jpg,https://www.yelp.com/biz/sun-street-breads-minneapolis?adjust_creative=P1RJNSLd83EWzgeA0sG62A&utm_campaign=yelp_api_v3&utm_medium=api_v3_business_search&utm_source=P1RJNSLd83EWzgeA0sG62A,44.91944,-93.27834,"4600 Nicollet Ave S Minneapolis, MN 55419",(612) 354-3414,"['Bakeries', 'Cafes', 'Pizza']",['delivery'],4.0,208
115,P7iziIpv5bNme_sxYGZNBQ,Nighthawks Diner & Bar,https://s3-media2.fl.yelpcdn.com/bphoto/nc1Tw03hQ8PePttm0Dwurw/o.jpg,https://www.yelp.com/biz/nighthawks-diner-and-bar-minneapolis-2?adjust_creative=P1RJNSLd83EWzgeA0sG62A&utm_campaign=yelp_api_v3&utm_medium=api_v3_business_search&utm_source=P1RJNSLd83EWzgeA0sG62A,44.9341958882945,-93.277782007544,"3753 Nicollet Ave S Minneapolis, MN 55409",(612) 248-8111,"['Diners', 'American (Traditional)', 'Bars']",['delivery'],4.0,323
116,Z0f8wwUpiq2TLLIGm4BMKg,4 Bells,https://s3-media1.fl.yelpcdn.com/bphoto/rE3lanP-yl8AORRj299_fw/o.jpg,https://www.yelp.com/biz/4-bells-minneapolis-2?adjust_creative=P1RJNSLd83EWzgeA0sG62A&utm_campaign=yelp_api_v3&utm_medium=api_v3_business_search&utm_source=P1RJNSLd83EWzgeA0sG62A,44.9715994444279,-93.2853928832299,"1610 Harmon Pl Minneapolis, MN 55403",(612) 904-1163,"['Southern', 'Seafood', 'Bars']",['delivery'],4.0,295
117,k7qd4zRCL6IFZ2_RTo6LQw,Red Wagon Pizza Co,https://s3-media1.fl.yelpcdn.com/bphoto/IE6-VZRIeHJXc53S5JCXeg/o.jpg,https://www.yelp.com/biz/red-wagon-pizza-co-minneapolis-2?adjust_creative=P1RJNSLd83EWzgeA0sG62A&utm_campaign=yelp_api_v3&utm_medium=api_v3_business_search&utm_source=P1RJNSLd83EWzgeA0sG62A,44.904607,-93.308936,"5416 Penn Ave S Minneapolis, MN 55419",(612) 259-7147,['Pizza'],['delivery'],4.0,257
118,CwqCDJD7BKPmkIFwXLAh_A,Day Block Brewing Company - Pizza Place & Brewpub,https://s3-media1.fl.yelpcdn.com/bphoto/wRfM0MGGtATlc1qyZ1wvxw/o.jpg,https://www.yelp.com/biz/day-block-brewing-company-pizza-place-and-brewpub-minneapolis?adjust_creative=P1RJNSLd83EWzgeA0sG62A&utm_campaign=yelp_api_v3&utm_medium=api_v3_business_search&utm_source=P1RJNSLd83EWzgeA0sG62A,44.9752002794334,-93.2531038920654,"1105 Washington Ave S Minneapolis, MN 55415",(612) 617-7793,"['Pizza', 'Breweries', 'Pubs']",['delivery'],4.0,277
119,068-MS43H2xgeWikB9cyBg,Sen Yai Sen Lek,https://s3-media4.fl.yelpcdn.com/bphoto/6z25X68DNJNEG1Fu9X0aLg/o.jpg,https://www.yelp.com/biz/sen-yai-sen-lek-minneapolis?adjust_creative=P1RJNSLd83EWzgeA0sG62A&utm_campaign=yelp_api_v3&utm_medium=api_v3_business_search&utm_source=P1RJNSLd83EWzgeA0sG62A,45.01289,-93.2477399,"2422 Central Ave NE Minneapolis, MN 55418",(612) 781-3046,['Thai'],[],4.0,313
120,u8dQlWcrV-oTbumTehJUzQ,Ruth's Chris Steak House,https://s3-media2.fl.yelpcdn.com/bphoto/EjUKK_bigOSpLzJdENiJmQ/o.jpg,https://www.yelp.com/biz/ruths-chris-steak-house-minneapolis-2?adjust_creative=P1RJNSLd83EWzgeA0sG62A&utm_campaign=yelp_api_v3&utm_medium=api_v3_business_search&utm_source=P1RJNSLd83EWzgeA0sG62A,44.9730760884888,-93.2722395899796,"920 2nd Ave S Ste 100 International Center II Minneapolis, MN 55402",(612) 672-9000,['Steakhouses'],"['delivery', 'pickup']",4.0,199
121,FD-8NEXgLxBffVBN8Mtdvg,Penny's Coffee,https://s3-media2.fl.yelpcdn.com/bphoto/M6Vg8PrYvOcGWp5DvM2BYg/o.jpg,https://www.yelp.com/biz/pennys-coffee-minneapolis?adjust_creative=P1RJNSLd83EWzgeA0sG62A&utm_campaign=yelp_api_v3&utm_medium=api_v3_business_search&utm_source=P1RJNSLd83EWzgeA0sG62A,44.9811812218429,-93.2658063,"100 S Washington Ave Minneapolis, MN 55401",(612) 295-9761,"['Cafes', 'Wine Bars', 'Beer Bar']",[],4.5,134
122,-rfv_Bj7ejFe-1eZs_swXw,Kieran's Irish Pub,https://s3-media2.fl.yelpcdn.com/bphoto/1NsHLMvLeJCmP31taJKqYQ/o.jpg,https://www.yelp.com/biz/kierans-irish-pub-minneapolis-2?adjust_creative=P1RJNSLd83EWzgeA0sG62A&utm_campaign=yelp_api_v3&utm_medium=api_v3_business_search&utm_source=P1RJNSLd83EWzgeA0sG62A,44.9788017272949,-93.2748489379883,"601 1st Ave N Minneapolis, MN 55403",(612) 339-4499,"['Pubs', 'Irish']","['delivery', 'pickup']",4.0,298
123,EsptO0Gr76-etcks8RYw9g,Nightingale,https://s3-media3.fl.yelpcdn.com/bphoto/anaZVSoS7KkpOXsjOYc2IA/o.jpg,https://www.yelp.com/biz/nightingale-minneapolis-3?adjust_creative=P1RJNSLd83EWzgeA0sG62A&utm_campaign=yelp_api_v3&utm_medium=api_v3_business_search&utm_source=P1RJNSLd83EWzgeA0sG62A,44.95578,-93.28768,"2551 Lyndale Ave S Minneapolis, MN 55405",(612) 354-7060,"['Breakfast & Brunch', 'Cocktail Bars']",['delivery'],4.0,255
124,XAvcIISiJ0PxkHQw21MjfQ,Keys at the Foshay,https://s3-media1.fl.yelpcdn.com/bphoto/ctfDOemRlyvBSH1ZgHRXVQ/o.jpg,https://www.yelp.com/biz/keys-at-the-foshay-minneapolis?adjust_creative=P1RJNSLd83EWzgeA0sG62A&utm_campaign=yelp_api_v3&utm_medium=api_v3_business_search&utm_source=P1RJNSLd83EWzgeA0sG62A,44.9742138534562,-93.2717596129029,"114 S 9th St Minneapolis, MN 55402",(612) 339-6399,"['Breakfast & Brunch', 'American (Traditional)', 'Bars']",['delivery'],3.5,374
125,5g7O-2hH3ac1m_0SP-ikjQ,Lyn 65 Kitchen & Bar,https://s3-media4.fl.yelpcdn.com/bphoto/va299h7LoJZSnhrFXstWJw/o.jpg,https://www.yelp.com/biz/lyn-65-kitchen-and-bar-minneapolis-5?adjust_creative=P1RJNSLd83EWzgeA0sG62A&utm_campaign=yelp_api_v3&utm_medium=api_v3_business_search&utm_source=P1RJNSLd83EWzgeA0sG62A,44.885872,-93.286079,"6439 Lyndale Ave S Minneapolis, MN 55423",(612) 353-5501,"['American (New)', 'Cocktail Bars']",['delivery'],4.0,314
126,_hluGBt1cPMm5glevl7nSg,The Sample Room,https://s3-media4.fl.yelpcdn.com/bphoto/Oju-zBwwWXHuzZrp-0C9Mg/o.jpg,https://www.yelp.com/biz/the-sample-room-minneapolis?adjust_creative=P1RJNSLd83EWzgeA0sG62A&utm_campaign=yelp_api_v3&utm_medium=api_v3_business_search&utm_source=P1RJNSLd83EWzgeA0sG62A,45.00955,-93.2721399,"2124 Marshall St NE Minneapolis, MN 55418",(612) 789-0333,['American (New)'],['delivery'],4.0,296
127,ZrqCu9utGiCIe6igBVnE4g,Tenant Restaurant,https://s3-media2.fl.yelpcdn.com/bphoto/_-xTYkz2rNCIDBedi97jJg/o.jpg,https://www.yelp.com/biz/tenant-restaurant-minneapolis?adjust_creative=P1RJNSLd83EWzgeA0sG62A&utm_campaign=yelp_api_v3&utm_medium=api_v3_business_search&utm_source=P1RJNSLd83EWzgeA0sG62A,44.9248850365973,-93.2910469919443,"4300 Bryant Ave S Minneapolis, MN 55409",(612) 827-8111,['American (New)'],[],4.5,89
128,EETP-7tP_eQf7JsK6D3hig,India Palace Uptown,https://s3-media1.fl.yelpcdn.com/bphoto/eU2OJ_BIIDk6VD5TNPRuBA/o.jpg,https://www.yelp.com/biz/india-palace-uptown-minneapolis-3?adjust_creative=P1RJNSLd83EWzgeA0sG62A&utm_campaign=yelp_api_v3&utm_medium=api_v3_business_search&utm_source=P1RJNSLd83EWzgeA0sG62A,44.956095,-93.2966238,"2546 Hennepin Ave S Minneapolis, MN 55405",(612) 377-5000,"['Indian', 'Buffets']",['delivery'],4.5,166
129,w-SNKgqgNcsEq7Npv2NfEw,Smoke In The Pit,https://s3-media4.fl.yelpcdn.com/bphoto/gzBO5VPpBJdzueTmQDqGgQ/o.jpg,https://www.yelp.com/biz/smoke-in-the-pit-minneapolis?adjust_creative=P1RJNSLd83EWzgeA0sG62A&utm_campaign=yelp_api_v3&utm_medium=api_v3_business_search&utm_source=P1RJNSLd83EWzgeA0sG62A,44.9349588,-93.2623312,"3733 Chicago Ave S Minneapolis, MN 55407",(612) 315-3145,"['Barbeque', 'Soul Food']","['delivery', 'pickup']",4.5,188
130,Rj1qvUhDindvLtMAHxCwWg,Hard Times Café,https://s3-media3.fl.yelpcdn.com/bphoto/urxZLBe-JanKW2UPXiePKQ/o.jpg,https://www.yelp.com/biz/hard-times-caf%C3%A9-minneapolis-2?adjust_creative=P1RJNSLd83EWzgeA0sG62A&utm_campaign=yelp_api_v3&utm_medium=api_v3_business_search&utm_source=P1RJNSLd83EWzgeA0sG62A,44.969483,-93.246147,"1821 Riverside Ave Minneapolis, MN 55454",(612) 341-9261,['Cafes'],[],4.0,329
131,n-YJcCcqEteJwGD5WqihtA,Masu Sushi & Robata,https://s3-media3.fl.yelpcdn.com/bphoto/TL-EmoLbS784Enk9nnP45g/o.jpg,https://www.yelp.com/biz/masu-sushi-and-robata-minneapolis?adjust_creative=P1RJNSLd83EWzgeA0sG62A&utm_campaign=yelp_api_v3&utm_medium=api_v3_business_search&utm_source=P1RJNSLd83EWzgeA0sG62A,44.9883318186803,-93.2550374451695,"330 E Hennepin Ave Minneapolis, MN 55414",(612) 332-6278,"['Sushi Bars', 'Japanese', 'Venues & Event Spaces']","['delivery', 'pickup']",3.5,441
132,1b48T8_1plm8qxfJNIG3Tw,5-8 club,https://s3-media3.fl.yelpcdn.com/bphoto/P1Of10s2vDbVilbAMrjWEA/o.jpg,https://www.yelp.com/biz/5-8-club-minneapolis-8?adjust_creative=P1RJNSLd83EWzgeA0sG62A&utm_campaign=yelp_api_v3&utm_medium=api_v3_business_search&utm_source=P1RJNSLd83EWzgeA0sG62A,44.89772,-93.24798,"5800 Cedar Ave Minneapolis, MN 55417",(612) 823-5858,"['Burgers', 'American (Traditional)']",['delivery'],3.5,668
133,oidsSjjDxAliG3PFXxLQiA,Moto-i Ramen and Sake House,https://s3-media2.fl.yelpcdn.com/bphoto/TcGy5ujIMNhvSzBltFJJUQ/o.jpg,https://www.yelp.com/biz/moto-i-minneapolis?adjust_creative=P1RJNSLd83EWzgeA0sG62A&utm_campaign=yelp_api_v3&utm_medium=api_v3_business_search&utm_source=P1RJNSLd83EWzgeA0sG62A,44.94865,-93.28851,"2940 Lyndale Ave S Minneapolis, MN 55408",(612) 821-6262,"['Japanese', 'Bars', 'Breakfast & Brunch']",['delivery'],3.5,497
134,RgXeN29zBaSGqrT-jJR7Ww,The 1029 Bar,https://s3-media3.fl.yelpcdn.com/bphoto/Be28U9csD0GDrsLKLr7QDw/o.jpg,https://www.yelp.com/biz/the-1029-bar-minneapolis?adjust_creative=P1RJNSLd83EWzgeA0sG62A&utm_campaign=yelp_api_v3&utm_medium=api_v3_business_search&utm_source=P1RJNSLd83EWzgeA0sG62A,44.99809,-93.26814,"1029 Marshall St NE Minneapolis, MN 55413",(612) 379-4322,"['Sports Bars', 'American (Traditional)']",[],4.0,212
135,sKQYFMUNyt8TORY2cOZskQ,Mojo Coffee Gallery,https://s3-media4.fl.yelpcdn.com/bphoto/E_Ghyl7TUwdDG-tOTua6WA/o.jpg,https://www.yelp.com/biz/mojo-coffee-gallery-minneapolis?adjust_creative=P1RJNSLd83EWzgeA0sG62A&utm_campaign=yelp_api_v3&utm_medium=api_v3_business_search&utm_source=P1RJNSLd83EWzgeA0sG62A,45.010724,-93.26854,"2205 California St NE Ste 102 Minneapolis, MN 55418",(612) 361-4949,"['Coffee & Tea', 'Breakfast & Brunch', 'Art Galleries']",[],4.5,87
136,WRUoQcryVMv8mjS-8IL6EA,Bar Luchador,https://s3-media3.fl.yelpcdn.com/bphoto/-diBo1Cn7ko3rL3_OPTfuw/o.jpg,https://www.yelp.com/biz/bar-luchador-minneapolis-2?adjust_creative=P1RJNSLd83EWzgeA0sG62A&utm_campaign=yelp_api_v3&utm_medium=api_v3_business_search&utm_source=P1RJNSLd83EWzgeA0sG62A,44.9738128,-93.2262807,"825 Washington Ave SE Minneapolis, MN 55414",(612) 379-1450,"['Mexican', 'Cocktail Bars']",['delivery'],4.0,209
137,b1Lzfg6225QGUAfNrrB37w,UP Coffee Roasters,https://s3-media4.fl.yelpcdn.com/bphoto/_iGstwZkDr4gm6hDWWlc_A/o.jpg,https://www.yelp.com/biz/up-coffee-roasters-minneapolis-2?adjust_creative=P1RJNSLd83EWzgeA0sG62A&utm_campaign=yelp_api_v3&utm_medium=api_v3_business_search&utm_source=P1RJNSLd83EWzgeA0sG62A,44.9925852338566,-93.2250926809509,"1901 Traffic St NE Minneapolis, MN 55413",(612) 326-9820,"['Sandwiches', 'Coffee & Tea', 'Coffee Roasteries']",[],4.5,107
138,8GwO6xW7jNe90wotC2LGKA,Shuang Cheng Restaurant,https://s3-media4.fl.yelpcdn.com/bphoto/GUPLxr6MbI1Xaz_E2gmzeA/o.jpg,https://www.yelp.com/biz/shuang-cheng-restaurant-minneapolis?adjust_creative=P1RJNSLd83EWzgeA0sG62A&utm_campaign=yelp_api_v3&utm_medium=api_v3_business_search&utm_source=P1RJNSLd83EWzgeA0sG62A,44.98044,-93.2365,"1320 4th St SE Minneapolis, MN 55414",(612) 378-0208,['Chinese'],['delivery'],4.0,317
139,8CSob0dujFjytEmj-hYahA,Uptown Diner,https://s3-media1.fl.yelpcdn.com/bphoto/sVPjndYVvzGZflN57v6uJg/o.jpg,https://www.yelp.com/biz/uptown-diner-minneapolis?adjust_creative=P1RJNSLd83EWzgeA0sG62A&utm_campaign=yelp_api_v3&utm_medium=api_v3_business_search&utm_source=P1RJNSLd83EWzgeA0sG62A,44.9560891,-93.2964327,"2548 Hennepin Ave S Minneapolis, MN 55405",(612) 874-0481,"['Diners', 'Breakfast & Brunch', 'Burgers']",['delivery'],3.5,365
140,7kBAKnB0xeu68q0Ds_aiAg,Costa Blanca Bistro,https://s3-media4.fl.yelpcdn.com/bphoto/ktfCeqmcgUWJ3pPlVMqjAw/o.jpg,https://www.yelp.com/biz/costa-blanca-bistro-minneapolis?adjust_creative=P1RJNSLd83EWzgeA0sG62A&utm_campaign=yelp_api_v3&utm_medium=api_v3_business_search&utm_source=P1RJNSLd83EWzgeA0sG62A,45.01275,-93.24786,"2416 Central Ave NE Minneapolis, MN 55418",(612) 789-9296,"['Tapas/Small Plates', 'American (New)', 'Spanish']",['delivery'],4.5,113
141,bTyYlFA1pZU9ycmYlDuyqA,Wilde Café & Spirits,https://s3-media4.fl.yelpcdn.com/bphoto/6e9J7-IyPjrsQtIkkzXy_Q/o.jpg,https://www.yelp.com/biz/wilde-caf%C3%A9-and-spirits-minneapolis?adjust_creative=P1RJNSLd83EWzgeA0sG62A&utm_campaign=yelp_api_v3&utm_medium=api_v3_business_search&utm_source=P1RJNSLd83EWzgeA0sG62A,44.985692,-93.257821,"65 Main St SE Minneapolis, MN 55414",(612) 331-4544,"['Coffee & Tea', 'Breakfast & Brunch', 'American (New)']","['restaurant_reservation', 'delivery', 'pickup']",3.5,403
142,VVU19gaxLPKyzWSITKMC1Q,Wally's Falafel and Hummus,https://s3-media4.fl.yelpcdn.com/bphoto/l7XJv8cg9JWYrIksvVrudw/o.jpg,https://www.yelp.com/biz/wallys-falafel-and-hummus-minneapolis?adjust_creative=P1RJNSLd83EWzgeA0sG62A&utm_campaign=yelp_api_v3&utm_medium=api_v3_business_search&utm_source=P1RJNSLd83EWzgeA0sG62A,44.9812,-93.23556,"423 14th Ave SE Minneapolis, MN 55414",(612) 746-4776,"['Middle Eastern', 'Falafel']",[],4.0,224
143,t_FhMt5J9Dc-AhkS7iOhMA,J.D. Hoyt's,https://s3-media4.fl.yelpcdn.com/bphoto/lN3Sl6Wz5tmZ7vZDYG_ytg/o.jpg,https://www.yelp.com/biz/j-d-hoyts-minneapolis-2?adjust_creative=P1RJNSLd83EWzgeA0sG62A&utm_campaign=yelp_api_v3&utm_medium=api_v3_business_search&utm_source=P1RJNSLd83EWzgeA0sG62A,44.98441,-93.27306,"301 Washington Ave N Minneapolis, MN 55401",(612) 338-1560,"['Steakhouses', 'Breakfast & Brunch', 'Seafood']",['delivery'],4.0,208
144,Z_Y3BqUKbFXm0B_NkruDcQ,Barrio,https://s3-media2.fl.yelpcdn.com/bphoto/Kiy30qGLBsfBpzWPT44SHQ/o.jpg,https://www.yelp.com/biz/barrio-minneapolis?adjust_creative=P1RJNSLd83EWzgeA0sG62A&utm_campaign=yelp_api_v3&utm_medium=api_v3_business_search&utm_source=P1RJNSLd83EWzgeA0sG62A,44.97407,-93.27416,"925 Nicollet Mall Minneapolis, MN 55402",(612) 333-9953,"['Mexican', 'Cocktail Bars']",['delivery'],3.5,460
145,l5BS7mKuNQDjslY1ufGfJA,Amazing Thailand,https://s3-media2.fl.yelpcdn.com/bphoto/Bgi3dSTy2rcU5slOcp414A/o.jpg,https://www.yelp.com/biz/amazing-thailand-minneapolis?adjust_creative=P1RJNSLd83EWzgeA0sG62A&utm_campaign=yelp_api_v3&utm_medium=api_v3_business_search&utm_source=P1RJNSLd83EWzgeA0sG62A,44.9474286384202,-93.2987386313523,"3024 Hennepin Ave S Minneapolis, MN 55408",(612) 822-5588,['Thai'],[],3.5,463
146,MJvB5TFcFo2_cYGN0D5iTA,Pizza Luce,https://s3-media4.fl.yelpcdn.com/bphoto/oYTF2vamHutzK1J90ph7Og/o.jpg,https://www.yelp.com/biz/pizza-luce-minneapolis-13?adjust_creative=P1RJNSLd83EWzgeA0sG62A&utm_campaign=yelp_api_v3&utm_medium=api_v3_business_search&utm_source=P1RJNSLd83EWzgeA0sG62A,44.96298,-93.24044,"2200 E Franklin Ave Minneapolis, MN 55404",(612) 332-2535,"['Pizza', 'Italian', 'Beer Bar']",[],4.0,233
147,WSW-5Rnm1bNSK7ezY9TzLw,Buster's on 28th,https://s3-media1.fl.yelpcdn.com/bphoto/QjSES20MoRkMZN1R4odiWw/o.jpg,https://www.yelp.com/biz/busters-on-28th-minneapolis?adjust_creative=P1RJNSLd83EWzgeA0sG62A&utm_campaign=yelp_api_v3&utm_medium=api_v3_business_search&utm_source=P1RJNSLd83EWzgeA0sG62A,44.9265711,-93.2322549,"4204 28th Ave S Minneapolis, MN 55406",(612) 729-0911,"['Gastropubs', 'American (Traditional)']",['delivery'],4.0,262
148,aVFytvKzR4GnBxSzHK0EJA,Fika,https://s3-media2.fl.yelpcdn.com/bphoto/ohLlWcUsnkihbGEKFRWQDg/o.jpg,https://www.yelp.com/biz/fika-minneapolis?adjust_creative=P1RJNSLd83EWzgeA0sG62A&utm_campaign=yelp_api_v3&utm_medium=api_v3_business_search&utm_source=P1RJNSLd83EWzgeA0sG62A,44.9550197701836,-93.2655572891235,"American Swedish Institute 2600 Park Ave S Minneapolis, MN 55407",(612) 871-4907,['Modern European'],[],4.5,114
149,3vL7hXyLlRkz77bvy4_LYA,Jasmine Deli,https://s3-media3.fl.yelpcdn.com/bphoto/rRCo7ATGgq5Zh7dYtWAO_w/o.jpg,https://www.yelp.com/biz/jasmine-deli-minneapolis?adjust_creative=P1RJNSLd83EWzgeA0sG62A&utm_campaign=yelp_api_v3&utm_medium=api_v3_business_search&utm_source=P1RJNSLd83EWzgeA0sG62A,44.9562932291908,-93.2780600680534,"2532 Nicollet Ave Minneapolis, MN 55404",(612) 870-4700,"['Vietnamese', 'Sandwiches']","['delivery', 'pickup']",4.0,153
150,BwGXbtMu7VAVUQPMVzBNkg,Mercury Dining Room and Rail,https://s3-media3.fl.yelpcdn.com/bphoto/eEcQcDLX3M2AUYnjzqWZwg/o.jpg,https://www.yelp.com/biz/mercury-dining-room-and-rail-minneapolis-2?adjust_creative=P1RJNSLd83EWzgeA0sG62A&utm_campaign=yelp_api_v3&utm_medium=api_v3_business_search&utm_source=P1RJNSLd83EWzgeA0sG62A,44.977982,-93.2692993,"505 Marquette Ave S Minneapolis, MN 55402",(612) 728-1111,"['Diners', 'Breakfast & Brunch', 'Bars']","['pickup', 'delivery']",4.0,180
151,rQdlDXb1pH2VZl9NDAYr4g,Cafe Ena,https://s3-media2.fl.yelpcdn.com/bphoto/cwesAfw8tRZ5ny1kSrqIQg/o.jpg,https://www.yelp.com/biz/cafe-ena-minneapolis-22?adjust_creative=P1RJNSLd83EWzgeA0sG62A&utm_campaign=yelp_api_v3&utm_medium=api_v3_business_search&utm_source=P1RJNSLd83EWzgeA0sG62A,44.9194302,-93.2842393,"4601 Grand Ave S Minneapolis, MN 55419",(612) 824-4441,"['Latin American', 'Mexican', 'Seafood']",['delivery'],4.0,249
152,kYRikNxFskApYvPn4btqbw,Minneapolis Town Hall Brewery,https://s3-media1.fl.yelpcdn.com/bphoto/dnRBSe8n-nvk9lcWdZmabg/o.jpg,https://www.yelp.com/biz/minneapolis-town-hall-brewery-minneapolis-2?adjust_creative=P1RJNSLd83EWzgeA0sG62A&utm_campaign=yelp_api_v3&utm_medium=api_v3_business_search&utm_source=P1RJNSLd83EWzgeA0sG62A,44.97339,-93.24779,"1430 Washington Ave S Minneapolis, MN 55454",(612) 339-8696,"['Pubs', 'Breweries', 'American (Traditional)']",[],4.0,305
153,t6gOJACxHQFveV1-vmEZmg,Spitz,https://s3-media3.fl.yelpcdn.com/bphoto/Ed4nI56Ozs7LnWSrOYulmA/o.jpg,https://www.yelp.com/biz/spitz-minneapolis-2?adjust_creative=P1RJNSLd83EWzgeA0sG62A&utm_campaign=yelp_api_v3&utm_medium=api_v3_business_search&utm_source=P1RJNSLd83EWzgeA0sG62A,44.98914,-93.25228,"518 E Hennepin Ave Minneapolis, MN 55414",(612) 584-4922,"['Mediterranean', 'Bars']","['delivery', 'pickup']",4.0,183
154,Tc_utGSR50-MeQP1gD0g-Q,Northeast Social,https://s3-media3.fl.yelpcdn.com/bphoto/skO5CKggInx7NFY0B6lFew/o.jpg,https://www.yelp.com/biz/northeast-social-minneapolis-2?adjust_creative=P1RJNSLd83EWzgeA0sG62A&utm_campaign=yelp_api_v3&utm_medium=api_v3_business_search&utm_source=P1RJNSLd83EWzgeA0sG62A,45.00122,-93.2617999,"359 13th Ave NE Minneapolis, MN 55413",(612) 877-8111,['American (New)'],"['restaurant_reservation', 'delivery']",4.0,278
155,JsPgSq4EfTpSdFW5WUVtcw,Lepot Chinese Hotpot,https://s3-media3.fl.yelpcdn.com/bphoto/QcuYvzhUGhIOyLbq8mjrQA/o.jpg,https://www.yelp.com/biz/lepot-chinese-hotpot-minneapolis-2?adjust_creative=P1RJNSLd83EWzgeA0sG62A&utm_campaign=yelp_api_v3&utm_medium=api_v3_business_search&utm_source=P1RJNSLd83EWzgeA0sG62A,44.9817325803656,-93.235014975071,"507 14th Ave SE Minneapolis, MN 55414",(612) 886-3855,"['Chinese', 'Hot Pot']",['delivery'],4.0,147
156,DkEza4eYThvhfnj_oPBSPw,Gandhi Mahal,https://s3-media1.fl.yelpcdn.com/bphoto/ne1uMj_UpndbcCZ_j7xuXw/o.jpg,https://www.yelp.com/biz/gandhi-mahal-minneapolis?adjust_creative=P1RJNSLd83EWzgeA0sG62A&utm_campaign=yelp_api_v3&utm_medium=api_v3_business_search&utm_source=P1RJNSLd83EWzgeA0sG62A,44.9479179382324,-93.2327346801758,"3009 27th Ave S Minneapolis, MN 55406",(612) 729-5222,['Indian'],['pickup'],4.0,331
157,i5wbSA8McFgLV1ERVrOn_Q,Longfellow Grill,https://s3-media2.fl.yelpcdn.com/bphoto/MvtyTPdSCIgebFK_4jQGvA/o.jpg,https://www.yelp.com/biz/longfellow-grill-minneapolis?adjust_creative=P1RJNSLd83EWzgeA0sG62A&utm_campaign=yelp_api_v3&utm_medium=api_v3_business_search&utm_source=P1RJNSLd83EWzgeA0sG62A,44.948722,-93.2061658,"2990 W River Pkwy Minneapolis, MN 55406",(612) 721-2711,"['American (Traditional)', 'Breakfast & Brunch']","['pickup', 'delivery']",4.0,329
158,YMZS-m2VrbJ3zW93i6umig,Darbar India Grill,https://s3-media4.fl.yelpcdn.com/bphoto/5w_1Y6U8tQhIMpNJGqaL-g/o.jpg,https://www.yelp.com/biz/darbar-india-grill-minneapolis?adjust_creative=P1RJNSLd83EWzgeA0sG62A&utm_campaign=yelp_api_v3&utm_medium=api_v3_business_search&utm_source=P1RJNSLd83EWzgeA0sG62A,44.948343,-93.2947493,"1221 W Lake St Ste 106 Minneapolis, MN 55408",(612) 822-3300,['Indian'],"['pickup', 'delivery']",4.0,272
159,0BAIDmWcSbX4SBPuvP4Iew,Kimchi Tofu House,https://s3-media4.fl.yelpcdn.com/bphoto/0teiOOXicJdEfKYEKoNO7w/o.jpg,https://www.yelp.com/biz/kimchi-tofu-house-minneapolis?adjust_creative=P1RJNSLd83EWzgeA0sG62A&utm_campaign=yelp_api_v3&utm_medium=api_v3_business_search&utm_source=P1RJNSLd83EWzgeA0sG62A,44.97328,-93.226937,"307 SE Oak St Minneapolis, MN 55414",(612) 331-1112,"['Korean', 'Ramen']",['delivery'],4.0,218
160,07VKEPjS7Juf2IB4jVa-wA,Olive & Lamb,https://s3-media4.fl.yelpcdn.com/bphoto/JHnp5HfP6eKSlO4QJ7FDoQ/o.jpg,https://www.yelp.com/biz/olive-and-lamb-minneapolis?adjust_creative=P1RJNSLd83EWzgeA0sG62A&utm_campaign=yelp_api_v3&utm_medium=api_v3_business_search&utm_source=P1RJNSLd83EWzgeA0sG62A,45.012975,-93.263755,"2424 University Ave NE Minneapolis, MN 55418",,"['Mediterranean', 'Persian/Iranian']",[],4.5,82
161,eAbwnD7c_Uz5sAbhqYYPsQ,Seed Cafe,https://s3-media3.fl.yelpcdn.com/bphoto/tHjlLpuE1o4wPKRUQnMa2A/o.jpg,https://www.yelp.com/biz/seed-cafe-minneapolis-2?adjust_creative=P1RJNSLd83EWzgeA0sG62A&utm_campaign=yelp_api_v3&utm_medium=api_v3_business_search&utm_source=P1RJNSLd83EWzgeA0sG62A,44.9490399,-93.32128,"3252 W Lake St Ste B Minneapolis, MN 55416",(612) 345-7265,"['Vegan', 'Gluten-Free']",['delivery'],4.5,65
162,5hjJEdnSzF_K25Uy-OWLVQ,Guavas Cuban Cafe,https://s3-media1.fl.yelpcdn.com/bphoto/C2ZQO-CtuDxEuIH__9iYjA/o.jpg,https://www.yelp.com/biz/guavas-cuban-cafe-minneapolis-2?adjust_creative=P1RJNSLd83EWzgeA0sG62A&utm_campaign=yelp_api_v3&utm_medium=api_v3_business_search&utm_source=P1RJNSLd83EWzgeA0sG62A,44.9012719,-93.2623526,"5607 Chicago Ave Minneapolis, MN 55417",(612) 824-0951,"['Cuban', 'Breakfast & Brunch', 'Beer, Wine & Spirits']",['delivery'],4.5,125
163,zIofRYBS1e5rZLXaAEJACQ,Aster Cafe,https://s3-media1.fl.yelpcdn.com/bphoto/KGH-AaV5inKHT7lQCbIb2w/o.jpg,https://www.yelp.com/biz/aster-cafe-minneapolis-3?adjust_creative=P1RJNSLd83EWzgeA0sG62A&utm_campaign=yelp_api_v3&utm_medium=api_v3_business_search&utm_source=P1RJNSLd83EWzgeA0sG62A,44.9846149557524,-93.2550563269837,"125 SE Main St Minneapolis, MN 55414",(612) 379-3138,"['American (New)', 'Bars', 'Venues & Event Spaces']",['delivery'],3.5,351
164,OGHbFg4HzRcFQW0nH_SWjQ,Pho Tau Bay,https://s3-media3.fl.yelpcdn.com/bphoto/OWl7Uf1k-mpst3urUP8R1Q/o.jpg,https://www.yelp.com/biz/pho-tau-bay-minneapolis?adjust_creative=P1RJNSLd83EWzgeA0sG62A&utm_campaign=yelp_api_v3&utm_medium=api_v3_business_search&utm_source=P1RJNSLd83EWzgeA0sG62A,44.9507294,-93.2775269,"2837 Nicollet Ave Minneapolis, MN 55408",(612) 874-6030,['Vietnamese'],['delivery'],4.0,221
165,TRO6Pw202TOrkaxO64sx0Q,Blue Door Pub Longfellow,https://s3-media3.fl.yelpcdn.com/bphoto/-rl8CtR4q8t10zblE0TEmw/o.jpg,https://www.yelp.com/biz/blue-door-pub-longfellow-minneapolis-2?adjust_creative=P1RJNSLd83EWzgeA0sG62A&utm_campaign=yelp_api_v3&utm_medium=api_v3_business_search&utm_source=P1RJNSLd83EWzgeA0sG62A,44.93979,-93.21313,"3448 42nd Ave S Minneapolis, MN 55406",(612) 315-2470,"['Burgers', 'Pubs', 'American (Traditional)']","['delivery', 'pickup']",4.0,340
166,UC0KkDTAZYgk-NivNjsN0A,Ichiddo Ramen,https://s3-media1.fl.yelpcdn.com/bphoto/EaV0peIEjnq22vl2JY7pHQ/o.jpg,https://www.yelp.com/biz/ichiddo-ramen-minneapolis?adjust_creative=P1RJNSLd83EWzgeA0sG62A&utm_campaign=yelp_api_v3&utm_medium=api_v3_business_search&utm_source=P1RJNSLd83EWzgeA0sG62A,44.9533206,-93.2784367,"2710 Nicollet Ave S Minneapolis, MN 55408",(612) 345-5832,['Ramen'],"['pickup', 'delivery']",4.0,241
167,-WcvL9Q0fJzT0z_3JotWMA,St Genevieve,https://s3-media4.fl.yelpcdn.com/bphoto/ZBxbQYk3j7zEbSrJbYhTkg/o.jpg,https://www.yelp.com/biz/st-genevieve-minneapolis-2?adjust_creative=P1RJNSLd83EWzgeA0sG62A&utm_campaign=yelp_api_v3&utm_medium=api_v3_business_search&utm_source=P1RJNSLd83EWzgeA0sG62A,44.9121172,-93.2906551,"5003 Bryant Ave S Minneapolis, MN 55419",(612) 353-4843,"['French', 'Bars']",['delivery'],4.0,255
168,p13IKfqqRykrLhIaBBX0Ig,Waffle Bar,https://s3-media2.fl.yelpcdn.com/bphoto/ganaxLim7ojcP74fFniaOQ/o.jpg,https://www.yelp.com/biz/waffle-bar-minneapolis?adjust_creative=P1RJNSLd83EWzgeA0sG62A&utm_campaign=yelp_api_v3&utm_medium=api_v3_business_search&utm_source=P1RJNSLd83EWzgeA0sG62A,44.9527015,-93.2882666,"2758 Lyndale Ave S Minneapolis, MN 55408",(612) 353-4524,"['Waffles', 'Bubble Tea', 'Ice Cream & Frozen Yogurt']",['delivery'],4.0,155
169,rurrg4cVCr7ciCPEYMLuIA,Punch Neapolitan Pizza - Stadium Village,https://s3-media4.fl.yelpcdn.com/bphoto/AHfm_mzfQWj6IS16njHGxw/o.jpg,https://www.yelp.com/biz/punch-neapolitan-pizza-stadium-village-minneapolis-2?adjust_creative=P1RJNSLd83EWzgeA0sG62A&utm_campaign=yelp_api_v3&utm_medium=api_v3_business_search&utm_source=P1RJNSLd83EWzgeA0sG62A,44.9736018,-93.2268074,"802 Washington Ave SE Minneapolis, MN 55414",(612) 331-3122,"['Pizza', 'Italian', 'Salad']",['delivery'],4.5,115
170,BXLExPNh3aIVdJ_4MTCjBA,Pagoda,https://s3-media2.fl.yelpcdn.com/bphoto/-s1tz6-nWBHcEs4p6gJ6Bw/o.jpg,https://www.yelp.com/biz/pagoda-minneapolis-5?adjust_creative=P1RJNSLd83EWzgeA0sG62A&utm_campaign=yelp_api_v3&utm_medium=api_v3_business_search&utm_source=P1RJNSLd83EWzgeA0sG62A,44.9803675,-93.2347689,"1417 4th St SE Minneapolis, MN 55414",(612) 378-4710,"['Dim Sum', 'Hot Pot', 'Szechuan']","['pickup', 'delivery']",3.5,411
171,X-mm564efSYmvM-9P4mn1w,Kado No Mise,https://s3-media3.fl.yelpcdn.com/bphoto/2cjkii_ki5fhH4S3qjEVmw/o.jpg,https://www.yelp.com/biz/kado-no-mise-minneapolis?adjust_creative=P1RJNSLd83EWzgeA0sG62A&utm_campaign=yelp_api_v3&utm_medium=api_v3_business_search&utm_source=P1RJNSLd83EWzgeA0sG62A,44.98461797,-93.26751935,"33 N 1st Ave Minneapolis, MN 55401",(612) 338-1515,"['Sushi Bars', 'Japanese', 'Cocktail Bars']",['delivery'],4.0,192
172,ZG1ZbICdPosZQJoIAsvsug,The Cove,https://s3-media2.fl.yelpcdn.com/bphoto/Way0S1B06Snm7QaqkuZl-g/o.jpg,https://www.yelp.com/biz/the-cove-minneapolis?adjust_creative=P1RJNSLd83EWzgeA0sG62A&utm_campaign=yelp_api_v3&utm_medium=api_v3_business_search&utm_source=P1RJNSLd83EWzgeA0sG62A,44.98139,-93.23572,"1320 5th St SE Minneapolis, MN 55414",(612) 236-4628,"['Poke', 'Asian Fusion']","['pickup', 'delivery']",4.0,140
173,4oSKKgr78ZYAAJl-ySYTrQ,Jax Café,https://s3-media3.fl.yelpcdn.com/bphoto/SKlZgtKgHeryEobSiZV50w/o.jpg,https://www.yelp.com/biz/jax-caf%C3%A9-minneapolis-2?adjust_creative=P1RJNSLd83EWzgeA0sG62A&utm_campaign=yelp_api_v3&utm_medium=api_v3_business_search&utm_source=P1RJNSLd83EWzgeA0sG62A,45.00834,-93.26352,"1928 University Ave NE Minneapolis, MN 55418",(612) 789-7297,"['Steakhouses', 'Breakfast & Brunch', 'Seafood']",['delivery'],4.0,276
174,wRg8MpjiM2UhQ1dNn9pcWQ,Taqueria Los Ocampo - Chicago & Lake,https://s3-media2.fl.yelpcdn.com/bphoto/zqzbiVh8iUy96eEV2J5DyA/o.jpg,https://www.yelp.com/biz/taqueria-los-ocampo-chicago-and-lake-minneapolis?adjust_creative=P1RJNSLd83EWzgeA0sG62A&utm_campaign=yelp_api_v3&utm_medium=api_v3_business_search&utm_source=P1RJNSLd83EWzgeA0sG62A,44.9481,-93.26227,"809 E Lake St Minneapolis, MN 55407",(612) 825-4978,"['Mexican', 'Desserts']",[],4.0,183
175,lnBW3PF5l90mpPwYO74h7w,Bryant Lake Bowl,https://s3-media2.fl.yelpcdn.com/bphoto/lMIR6rV5zs9kzZ0EMBTVMw/o.jpg,https://www.yelp.com/biz/bryant-lake-bowl-minneapolis-2?adjust_creative=P1RJNSLd83EWzgeA0sG62A&utm_campaign=yelp_api_v3&utm_medium=api_v3_business_search&utm_source=P1RJNSLd83EWzgeA0sG62A,44.9484814938579,-93.2901369077954,"810 W Lake St Minneapolis, MN 55408",(612) 825-3737,"['Bowling', 'American (New)', 'Bars']",[],3.5,321
176,VqQ2pFi9gBdOPCYmdn5nvw,The Sonder Shaker,https://s3-media1.fl.yelpcdn.com/bphoto/qUNvdBz7xnqsrVsNidl9LA/o.jpg,https://www.yelp.com/biz/the-sonder-shaker-minneapolis-3?adjust_creative=P1RJNSLd83EWzgeA0sG62A&utm_campaign=yelp_api_v3&utm_medium=api_v3_business_search&utm_source=P1RJNSLd83EWzgeA0sG62A,44.9871562,-93.2583503,"130 E Hennepin Ave Minneapolis, MN 55414",(612) 353-6557,"['American (New)', 'Cocktail Bars', 'Tapas/Small Plates']",[],4.0,142
177,3gvxjCwht6zSvLuf_bU09Q,Fat Lorenzo's,https://s3-media1.fl.yelpcdn.com/bphoto/NXlMlkUBH2YN32lI34cLlg/o.jpg,https://www.yelp.com/biz/fat-lorenzos-minneapolis?adjust_creative=P1RJNSLd83EWzgeA0sG62A&utm_campaign=yelp_api_v3&utm_medium=api_v3_business_search&utm_source=P1RJNSLd83EWzgeA0sG62A,44.9008511,-93.2477544,"5600 Cedar Ave S Minneapolis, MN 55417",(612) 822-2040,"['Pizza', 'Italian']",['pickup'],4.0,300
178,_NNDqkAE_I37bbnZBIzh3w,Namaste Café,https://s3-media4.fl.yelpcdn.com/bphoto/e0uqz6sXI0tYgdR0p6TPxg/o.jpg,https://www.yelp.com/biz/namaste-caf%C3%A9-minneapolis-3?adjust_creative=P1RJNSLd83EWzgeA0sG62A&utm_campaign=yelp_api_v3&utm_medium=api_v3_business_search&utm_source=P1RJNSLd83EWzgeA0sG62A,44.9569,-93.29624,"2512 Hennepin Ave Minneapolis, MN 55405",(612) 827-2496,"['Indian', 'Himalayan/Nepalese']","['pickup', 'delivery']",3.5,290
179,PMjS76Jz4REX9r6DEOamZw,Khao Hom Thai,https://s3-media4.fl.yelpcdn.com/bphoto/EW9K_pl9t65DVwt3b8uvJw/o.jpg,https://www.yelp.com/biz/khao-hom-thai-minneapolis?adjust_creative=P1RJNSLd83EWzgeA0sG62A&utm_campaign=yelp_api_v3&utm_medium=api_v3_business_search&utm_source=P1RJNSLd83EWzgeA0sG62A,45.012627,-93.246936,"2411 Central Ave NE Minneapolis, MN 55418",(612) 788-4000,['Thai'],"['delivery', 'pickup']",4.0,273
180,iGo01Hhq-Wk4pZuFdV4ErA,Keefer Court Bakery & Café,https://s3-media2.fl.yelpcdn.com/bphoto/dqj8EWNiYjaMJbAqBqQUjg/o.jpg,https://www.yelp.com/biz/keefer-court-bakery-and-caf%C3%A9-minneapolis-2?adjust_creative=P1RJNSLd83EWzgeA0sG62A&utm_campaign=yelp_api_v3&utm_medium=api_v3_business_search&utm_source=P1RJNSLd83EWzgeA0sG62A,44.9705772399902,-93.2475814819336,"326 Cedar Ave S Minneapolis, MN 55454",(612) 340-0937,"['Bakeries', 'Chinese']",['delivery'],4.0,178
181,QwIav0EyricSiDRHu_OWrg,Football Pizza,https://s3-media3.fl.yelpcdn.com/bphoto/fcEAqzqrOAFoM0uJwS0dow/o.jpg,https://www.yelp.com/biz/football-pizza-minneapolis-2?adjust_creative=P1RJNSLd83EWzgeA0sG62A&utm_campaign=yelp_api_v3&utm_medium=api_v3_business_search&utm_source=P1RJNSLd83EWzgeA0sG62A,45.0120728,-93.2471506,"2339 Central Ave NE Minneapolis, MN 55418",(612) 782-0169,"['Pizza', 'Venues & Event Spaces', 'Caterers']",['delivery'],4.0,161
182,y8_Dl4yqXci08LcsHnFPgA,Moose & Sadie's,https://s3-media2.fl.yelpcdn.com/bphoto/rmWpNGiN1Ixw8UB5J6f3qA/o.jpg,https://www.yelp.com/biz/moose-and-sadies-minneapolis?adjust_creative=P1RJNSLd83EWzgeA0sG62A&utm_campaign=yelp_api_v3&utm_medium=api_v3_business_search&utm_source=P1RJNSLd83EWzgeA0sG62A,44.98533,-93.2723199,"212 3rd Ave N Ste 107 Minneapolis, MN 55401",(612) 371-0464,"['Coffee & Tea', 'Breakfast & Brunch']",['delivery'],4.0,211
183,okrikJN73br3ZSE3pCnNXw,May Day Cafe,https://s3-media2.fl.yelpcdn.com/bphoto/8Nzcq77D38CecNEFskgNdA/o.jpg,https://www.yelp.com/biz/may-day-cafe-minneapolis-3?adjust_creative=P1RJNSLd83EWzgeA0sG62A&utm_campaign=yelp_api_v3&utm_medium=api_v3_business_search&utm_source=P1RJNSLd83EWzgeA0sG62A,44.93987,-93.25281,"3440 Bloomington Ave Minneapolis, MN 55407",(612) 729-5627,"['Breakfast & Brunch', 'Vegan', 'Coffee & Tea']",['delivery'],4.5,135
184,IuEyqqn_YSTrMURpJSJcIA,Fig + Farro,https://s3-media3.fl.yelpcdn.com/bphoto/w5L4QQZ3KUcGPfu39MFujg/o.jpg,https://www.yelp.com/biz/fig-farro-minneapolis?adjust_creative=P1RJNSLd83EWzgeA0sG62A&utm_campaign=yelp_api_v3&utm_medium=api_v3_business_search&utm_source=P1RJNSLd83EWzgeA0sG62A,44.948181,-93.297889,"3001 Hennepin Ave S Minneapolis, MN 55408",(612) 208-0609,"['Vegan', 'Comfort Food', 'Gluten-Free']",['delivery'],4.0,277
185,beiLfLG1Y0sAxhXZoqok8A,Zakia Deli,https://s3-media2.fl.yelpcdn.com/bphoto/hnGTYsr8x3Mx8OC6TkMjng/o.jpg,https://www.yelp.com/biz/zakia-deli-minneapolis?adjust_creative=P1RJNSLd83EWzgeA0sG62A&utm_campaign=yelp_api_v3&utm_medium=api_v3_business_search&utm_source=P1RJNSLd83EWzgeA0sG62A,44.99478,-93.22637,"2412 Kennedy St NE Minneapolis, MN 55413",(612) 379-0288,"['Mediterranean', 'Lebanese']","['delivery', 'pickup']",4.5,119
186,GwXxeMEQAFbu1HXowumfXg,Broders Cucina Italiana,https://s3-media2.fl.yelpcdn.com/bphoto/SqmYktxYeIFYCydyL5uVAw/o.jpg,https://www.yelp.com/biz/broders-cucina-italiana-minneapolis?adjust_creative=P1RJNSLd83EWzgeA0sG62A&utm_campaign=yelp_api_v3&utm_medium=api_v3_business_search&utm_source=P1RJNSLd83EWzgeA0sG62A,44.9126091,-93.3090591,"2308 W 50th St Minneapolis, MN 55410",(612) 925-3113,['Italian'],"['pickup', 'delivery']",4.0,156
187,oCOgPe97EPeXQRb8x_vkYw,Dakota,https://s3-media3.fl.yelpcdn.com/bphoto/-Fepiy7ilLbfDhYIISptRw/o.jpg,https://www.yelp.com/biz/dakota-minneapolis?adjust_creative=P1RJNSLd83EWzgeA0sG62A&utm_campaign=yelp_api_v3&utm_medium=api_v3_business_search&utm_source=P1RJNSLd83EWzgeA0sG62A,44.97383422,-93.27541825,"1010 Nicollet Mall Minneapolis, MN 55403",(612) 332-1010,"['Jazz & Blues', 'American (New)', 'Music Venues']",['delivery'],4.0,231
188,_vYb1T999TNxcpAt_R3HFw,Merlins Rest Pub,https://s3-media1.fl.yelpcdn.com/bphoto/dNioVneYwj6Mlrh8QfRXkw/o.jpg,https://www.yelp.com/biz/merlins-rest-pub-minneapolis?adjust_creative=P1RJNSLd83EWzgeA0sG62A&utm_campaign=yelp_api_v3&utm_medium=api_v3_business_search&utm_source=P1RJNSLd83EWzgeA0sG62A,44.9480623,-93.2202283,"3601 E Lake St Minneapolis, MN 55406",(612) 216-2419,"['Irish Pub', 'British', 'Burgers']",['pickup'],4.0,197
189,5l67Iyq25FBVsn9pqlgudA,Christos Greek Restaurant,https://s3-media2.fl.yelpcdn.com/bphoto/1UNulCIqXNnD0kC5xITgrg/o.jpg,https://www.yelp.com/biz/christos-greek-restaurant-minneapolis?adjust_creative=P1RJNSLd83EWzgeA0sG62A&utm_campaign=yelp_api_v3&utm_medium=api_v3_business_search&utm_source=P1RJNSLd83EWzgeA0sG62A,44.9544487,-93.2783203,"2632 Nicollet Ave Minneapolis, MN 55408",(612) 871-2111,['Greek'],['pickup'],4.0,149
190,KdNY1162oqdrGmjJoUHyAQ,Republic,https://s3-media4.fl.yelpcdn.com/bphoto/ZXqdvGTQXBCzUCXNmqSqTA/o.jpg,https://www.yelp.com/biz/republic-minneapolis?adjust_creative=P1RJNSLd83EWzgeA0sG62A&utm_campaign=yelp_api_v3&utm_medium=api_v3_business_search&utm_source=P1RJNSLd83EWzgeA0sG62A,44.97319,-93.24692,"221 Cedar Ave S Minneapolis, MN 55455",(612) 338-6146,"['American (New)', 'Pubs']",['delivery'],3.5,311
191,FR9ZFGmwrrxCrolxZDy6NQ,Sushi Train,https://s3-media3.fl.yelpcdn.com/bphoto/wlQO7gJtz_GUNB_ACYAUIw/o.jpg,https://www.yelp.com/biz/sushi-train-minneapolis?adjust_creative=P1RJNSLd83EWzgeA0sG62A&utm_campaign=yelp_api_v3&utm_medium=api_v3_business_search&utm_source=P1RJNSLd83EWzgeA0sG62A,44.971904,-93.276914,"1200 Nicollet Mall Ste C3 Minneapolis, MN 55403",(612) 259-8488,"['Sushi Bars', 'Conveyor Belt Sushi']","['pickup', 'delivery']",4.0,209
192,EWDHQTfclTXSbAWcPYN11w,Urban Eatery,https://s3-media1.fl.yelpcdn.com/bphoto/c8BrXukwyFMjya93KkbNgw/o.jpg,https://www.yelp.com/biz/urban-eatery-minneapolis?adjust_creative=P1RJNSLd83EWzgeA0sG62A&utm_campaign=yelp_api_v3&utm_medium=api_v3_business_search&utm_source=P1RJNSLd83EWzgeA0sG62A,44.950165,-93.315056,"2730 W Lake St Minneapolis, MN 55416",(612) 920-5000,"['American (New)', 'Venues & Event Spaces']",['delivery'],4.0,227
193,5aWhORV8Z6f--mPCHKxyEw,Cafe Racer Kitchen,https://s3-media2.fl.yelpcdn.com/bphoto/bSGN2LvVAqxY5XP8z2SIsg/o.jpg,https://www.yelp.com/biz/cafe-racer-kitchen-minneapolis?adjust_creative=P1RJNSLd83EWzgeA0sG62A&utm_campaign=yelp_api_v3&utm_medium=api_v3_business_search&utm_source=P1RJNSLd83EWzgeA0sG62A,44.95719,-93.22865,"2929 E 25th St Minneapolis, MN 55406",(612) 208-1695,"['Food Trucks', 'Latin American']",['delivery'],4.5,122
194,P7nJN_14j28o12Q3iEOFfA,Kafe 421,https://s3-media3.fl.yelpcdn.com/bphoto/uZM9MY7pg62akMNWBA6g4g/o.jpg,https://www.yelp.com/biz/kafe-421-minneapolis-3?adjust_creative=P1RJNSLd83EWzgeA0sG62A&utm_campaign=yelp_api_v3&utm_medium=api_v3_business_search&utm_source=P1RJNSLd83EWzgeA0sG62A,44.9812,-93.23556,"421 14th Ave SE Minneapolis, MN 55414",(612) 623-4900,"['Greek', 'Mediterranean']",['delivery'],4.0,146
195,TzIxaP5GvoZFM2ZWn2EixQ,Malabari Kitchen,https://s3-media3.fl.yelpcdn.com/bphoto/ZhZ0FruuvwYdhgPy3_z4nw/o.jpg,https://www.yelp.com/biz/malabari-kitchen-minneapolis?adjust_creative=P1RJNSLd83EWzgeA0sG62A&utm_campaign=yelp_api_v3&utm_medium=api_v3_business_search&utm_source=P1RJNSLd83EWzgeA0sG62A,44.9695839447033,-93.2474075952454,"414 1/2 Cedar Ave S Minneapolis, MN 55454",(612) 361-6777,['Indian'],"['delivery', 'pickup']",4.0,143
196,_BKkFuSQl6XqYHmLTNmtqg,Mesa Pizza,https://s3-media4.fl.yelpcdn.com/bphoto/sOftZQrWkrovHQtk5hdVKA/o.jpg,https://www.yelp.com/biz/mesa-pizza-minneapolis?adjust_creative=P1RJNSLd83EWzgeA0sG62A&utm_campaign=yelp_api_v3&utm_medium=api_v3_business_search&utm_source=P1RJNSLd83EWzgeA0sG62A,44.9808327904414,-93.2361996284807,"1323 4th St SE Minneapolis, MN 55414",(612) 436-3006,['Pizza'],"['pickup', 'delivery']",4.0,228
197,a-0q0fdkGb9Eeh3etaFWBw,Runyon's,https://s3-media4.fl.yelpcdn.com/bphoto/a_mg52Rgz8Gfe4OuvK_taQ/o.jpg,https://www.yelp.com/biz/runyons-minneapolis?adjust_creative=P1RJNSLd83EWzgeA0sG62A&utm_campaign=yelp_api_v3&utm_medium=api_v3_business_search&utm_source=P1RJNSLd83EWzgeA0sG62A,44.98289,-93.27094,"107 Washington Ave N Minneapolis, MN 55401",(612) 332-7158,"['American (Traditional)', 'Chicken Wings', 'Pubs']",[],4.0,189
198,nZcVdBxMwTa27uQezSuGTg,Emily's Lebanese Deli,https://s3-media4.fl.yelpcdn.com/bphoto/TFMocgsZqp2YVRLQvjxngw/o.jpg,https://www.yelp.com/biz/emilys-lebanese-deli-minneapolis?adjust_creative=P1RJNSLd83EWzgeA0sG62A&utm_campaign=yelp_api_v3&utm_medium=api_v3_business_search&utm_source=P1RJNSLd83EWzgeA0sG62A,44.995659,-93.261374,"641 University Ave NE Minneapolis, MN 55413",(612) 379-4069,"['Delis', 'Lebanese']",['delivery'],4.0,203
199,_rJCgBp6S4UzVHeEwOQ5cQ,Centro,https://s3-media1.fl.yelpcdn.com/bphoto/0Z1MZwctfcNKgkktz1-4Ww/o.jpg,https://www.yelp.com/biz/centro-minneapolis-2?adjust_creative=P1RJNSLd83EWzgeA0sG62A&utm_campaign=yelp_api_v3&utm_medium=api_v3_business_search&utm_source=P1RJNSLd83EWzgeA0sG62A,45.0024553374346,-93.2513416054248,"1414 Quincy St NE Minneapolis, MN 55413",(612) 345-5527,"['Cocktail Bars', 'Mexican', 'Breakfast & Brunch']",[],4.0,145
200,ungmvflIzrBWoRAzXityMQ,Maria's Café,https://s3-media1.fl.yelpcdn.com/bphoto/UWD3_12idD7JbSZcvbPeYQ/o.jpg,https://www.yelp.com/biz/marias-caf%C3%A9-minneapolis-2?adjust_creative=P1RJNSLd83EWzgeA0sG62A&utm_campaign=yelp_api_v3&utm_medium=api_v3_business_search&utm_source=P1RJNSLd83EWzgeA0sG62A,44.9625531911087,-93.2574802851253,"1113 E Franklin Ave Minneapolis, MN 55404",(612) 870-9842,"['Latin American', 'Breakfast & Brunch']",['delivery'],4.0,203
201,71c8fd_XWkMQWZptcpJPsQ,Ideal Diner,https://s3-media3.fl.yelpcdn.com/bphoto/_qt84D3yMttpKdnWGgCHGg/o.jpg,https://www.yelp.com/biz/ideal-diner-minneapolis?adjust_creative=P1RJNSLd83EWzgeA0sG62A&utm_campaign=yelp_api_v3&utm_medium=api_v3_business_search&utm_source=P1RJNSLd83EWzgeA0sG62A,45.00154,-93.24772,"1314 Central Ave NE Minneapolis, MN 55413",(612) 789-7630,['Diners'],['delivery'],4.0,129
202,WohkT-MtOq9lfOAI7Z_sEg,Taco Libre,https://s3-media1.fl.yelpcdn.com/bphoto/Owut6pdcu0w_A31oFgt2_A/o.jpg,https://www.yelp.com/biz/taco-libre-minneapolis-2?adjust_creative=P1RJNSLd83EWzgeA0sG62A&utm_campaign=yelp_api_v3&utm_medium=api_v3_business_search&utm_source=P1RJNSLd83EWzgeA0sG62A,44.86353,-93.35409,"5125 Edina Industrial Blvd Minneapolis, MN 55439",(952) 303-3360,['Mexican'],['delivery'],4.5,140
203,2AoJFItzjtGTrWeCBK-Mug,Harriet Brasserie,https://s3-media4.fl.yelpcdn.com/bphoto/zCbo9IDpq01A9g5yQoTGhg/o.jpg,https://www.yelp.com/biz/harriet-brasserie-minneapolis?adjust_creative=P1RJNSLd83EWzgeA0sG62A&utm_campaign=yelp_api_v3&utm_medium=api_v3_business_search&utm_source=P1RJNSLd83EWzgeA0sG62A,44.924619428759,-93.313710310022,"2724 W 43rd St Minneapolis, MN 55410",(612) 354-2197,"['American (New)', 'Breakfast & Brunch', 'Brasseries']",['delivery'],4.0,169
204,dF9NIaW_s7RWoLyq_zG4Jg,Zumbro Cafe,https://s3-media4.fl.yelpcdn.com/bphoto/TM1CiUSRPEmwTykrqrdggQ/o.jpg,https://www.yelp.com/biz/zumbro-cafe-minneapolis-3?adjust_creative=P1RJNSLd83EWzgeA0sG62A&utm_campaign=yelp_api_v3&utm_medium=api_v3_business_search&utm_source=P1RJNSLd83EWzgeA0sG62A,44.924565,-93.315071,"2803 W 43rd St Minneapolis, MN 55410",(612) 920-3606,"['American (New)', 'Breakfast & Brunch', 'Cafes']",['delivery'],4.0,135
205,eRnPeYTzkaRiH7WQq_i6fQ,Pizza Luce,https://s3-media2.fl.yelpcdn.com/bphoto/q9km2Om84ndfefzrNt-UHQ/o.jpg,https://www.yelp.com/biz/pizza-luce-minneapolis-12?adjust_creative=P1RJNSLd83EWzgeA0sG62A&utm_campaign=yelp_api_v3&utm_medium=api_v3_business_search&utm_source=P1RJNSLd83EWzgeA0sG62A,44.9445,-93.28855,"3200 Lyndale Ave S Minneapolis, MN 55408",(612) 827-5978,"['Pizza', 'Italian']",['delivery'],3.5,260
206,iSKBEMu1Mzra1NiNYCu3rg,The News Room,https://s3-media3.fl.yelpcdn.com/bphoto/XjWNMi9dcGwpp61_1YUH2w/o.jpg,https://www.yelp.com/biz/the-news-room-minneapolis?adjust_creative=P1RJNSLd83EWzgeA0sG62A&utm_campaign=yelp_api_v3&utm_medium=api_v3_business_search&utm_source=P1RJNSLd83EWzgeA0sG62A,44.9742604,-93.2746881,"990 Nicollet Mall Minneapolis, MN 55402",(612) 343-0073,"['American (New)', 'Lounges']",['delivery'],3.5,465
207,TuFYsQCKhNKuiKIZ6Bw3EA,Blue Door Pub Como Ave,https://s3-media2.fl.yelpcdn.com/bphoto/qdPllyGU1mMAr1qLEkqXSQ/o.jpg,https://www.yelp.com/biz/blue-door-pub-como-ave-minneapolis?adjust_creative=P1RJNSLd83EWzgeA0sG62A&utm_campaign=yelp_api_v3&utm_medium=api_v3_business_search&utm_source=P1RJNSLd83EWzgeA0sG62A,44.98764209357,-93.2297119125724,"1514 Como Ave SE Minneapolis, MN 55414",(612) 367-4964,"['Burgers', 'Pubs', 'Chicken Wings']","['pickup', 'delivery']",4.0,174
208,kbYjplzxRNfTZ8X4Wx54cA,Butter Bakery Café,https://s3-media4.fl.yelpcdn.com/bphoto/cr82BiFgqaVoPVBwH_KILw/o.jpg,https://www.yelp.com/biz/butter-bakery-caf%C3%A9-minneapolis-2?adjust_creative=P1RJNSLd83EWzgeA0sG62A&utm_campaign=yelp_api_v3&utm_medium=api_v3_business_search&utm_source=P1RJNSLd83EWzgeA0sG62A,44.9357312275838,-93.278160704287,"3700 Nicollet Ave S Minneapolis, MN 55409",(612) 521-7401,"['Breakfast & Brunch', 'Bakeries', 'Cafes']",['delivery'],4.0,220
209,aOM_FFpMTXGT0TrC9C3P0Q,Cuppa Java,https://s3-media4.fl.yelpcdn.com/bphoto/Ues0VeYvLJOVJ6NBJUOhTA/o.jpg,https://www.yelp.com/biz/cuppa-java-minneapolis?adjust_creative=P1RJNSLd83EWzgeA0sG62A&utm_campaign=yelp_api_v3&utm_medium=api_v3_business_search&utm_source=P1RJNSLd83EWzgeA0sG62A,44.97327,-93.30869,"400 Penn Ave S Minneapolis, MN 55405",(612) 374-4806,"['Coffee & Tea', 'Breakfast & Brunch', 'Cafes']",[],4.5,83
210,z8lduDUMvrc6dGSLMgEHFg,Berry Sweet Kitchen,https://s3-media1.fl.yelpcdn.com/bphoto/skkd2KYagVgyZnvG7yrG7g/o.jpg,https://www.yelp.com/biz/berry-sweet-kitchen-minneapolis?adjust_creative=P1RJNSLd83EWzgeA0sG62A&utm_campaign=yelp_api_v3&utm_medium=api_v3_business_search&utm_source=P1RJNSLd83EWzgeA0sG62A,44.90504,-93.2233,"5406 34th Ave S Minneapolis, MN 55417",(612) 345-7376,['Cafes'],['delivery'],4.0,158
211,U--WaaP-pH8a8e_61SWtVA,Terzo,https://s3-media1.fl.yelpcdn.com/bphoto/GcqHdE9k5EHiIbdc76q9kA/o.jpg,https://www.yelp.com/biz/terzo-minneapolis-2?adjust_creative=P1RJNSLd83EWzgeA0sG62A&utm_campaign=yelp_api_v3&utm_medium=api_v3_business_search&utm_source=P1RJNSLd83EWzgeA0sG62A,44.9122552457443,-93.3083754786309,"2221 W 50th St Minneapolis, MN 55419",(612) 925-0330,"['Italian', 'Wine Bars']","['pickup', 'delivery']",4.0,125
212,dHjt62FCBYhOEC6LFlk73w,Mercy Bar & Dining Room,https://s3-media3.fl.yelpcdn.com/bphoto/EzWKYTG7Q4yE2AubdJHH9Q/o.jpg,https://www.yelp.com/biz/mercy-bar-and-dining-room-minneapolis-3?adjust_creative=P1RJNSLd83EWzgeA0sG62A&utm_campaign=yelp_api_v3&utm_medium=api_v3_business_search&utm_source=P1RJNSLd83EWzgeA0sG62A,44.975817,-93.277104,"901 Hennepin Ave Minneapolis, MN 55403",(612) 252-7000,"['American (Traditional)', 'Seafood', 'Cocktail Bars']",['delivery'],4.0,176
213,_XG2doH3I3RFGPU8aKXkLg,Wise Acre Eatery,https://s3-media2.fl.yelpcdn.com/bphoto/9_tf0KyHaU2F1XungFO1WQ/o.jpg,https://www.yelp.com/biz/wise-acre-eatery-minneapolis?adjust_creative=P1RJNSLd83EWzgeA0sG62A&utm_campaign=yelp_api_v3&utm_medium=api_v3_business_search&utm_source=P1RJNSLd83EWzgeA0sG62A,44.90494,-93.27776,"5401 Nicollet Ave S Minneapolis, MN 55419",(612) 354-2577,"['Breakfast & Brunch', 'Coffee & Tea', 'Tapas/Small Plates']",['delivery'],3.5,322
214,OF_drLrSIUGUZTBUf-Nzsw,Manny's Tortas,https://s3-media2.fl.yelpcdn.com/bphoto/20mhJ7BiTWkURCSc7vOQTA/o.jpg,https://www.yelp.com/biz/mannys-tortas-minneapolis-3?adjust_creative=P1RJNSLd83EWzgeA0sG62A&utm_campaign=yelp_api_v3&utm_medium=api_v3_business_search&utm_source=P1RJNSLd83EWzgeA0sG62A,44.9484849,-93.2610135,"920 E Lake St Ste 125 Minneapolis, MN 55407",(612) 870-3930,"['Mexican', 'Sandwiches']","['pickup', 'delivery']",4.5,81
215,O-On_JfItCH5lFudaUAS6w,Tenka Ramen,https://s3-media3.fl.yelpcdn.com/bphoto/PxLZtfMRy_GqdoiHPbcafQ/o.jpg,https://www.yelp.com/biz/tenka-ramen-minneapolis?adjust_creative=P1RJNSLd83EWzgeA0sG62A&utm_campaign=yelp_api_v3&utm_medium=api_v3_business_search&utm_source=P1RJNSLd83EWzgeA0sG62A,44.9486599,-93.2975,"1404 W Lake St Minneapolis, MN 55408",(612) 825-4128,['Ramen'],['delivery'],4.5,91
216,AKnYRwq5qFU2oa4ce2P_Bw,Vellee Deli,https://s3-media4.fl.yelpcdn.com/bphoto/ncwwJubj-a5r_K5ujeqyTw/o.jpg,https://www.yelp.com/biz/vellee-deli-minneapolis-8?adjust_creative=P1RJNSLd83EWzgeA0sG62A&utm_campaign=yelp_api_v3&utm_medium=api_v3_business_search&utm_source=P1RJNSLd83EWzgeA0sG62A,44.9762567,-93.270768,"109 S 7th St Ste 263 Baker Center Minneapolis, MN 55402",(612) 236-4856,"['Asian Fusion', 'Mexican']",[],4.0,110
217,hgvL9cJmxb7zb3TQ7YfLyw,Town Hall Tap,https://s3-media3.fl.yelpcdn.com/bphoto/aUR7GjaLNXIRT3MLF_8Trw/o.jpg,https://www.yelp.com/biz/town-hall-tap-minneapolis-2?adjust_creative=P1RJNSLd83EWzgeA0sG62A&utm_campaign=yelp_api_v3&utm_medium=api_v3_business_search&utm_source=P1RJNSLd83EWzgeA0sG62A,44.915754,-93.26303,"4810 Chicago Ave S Minneapolis, MN 55417",(612) 767-7307,['Gastropubs'],['delivery'],4.0,193
218,v7X2wE24BVwHdGZAjjsbNA,Fuji Ya,https://s3-media1.fl.yelpcdn.com/bphoto/ljf54v0_R0BU3QfpRaeRvg/o.jpg,https://www.yelp.com/biz/fuji-ya-minneapolis-2?adjust_creative=P1RJNSLd83EWzgeA0sG62A&utm_campaign=yelp_api_v3&utm_medium=api_v3_business_search&utm_source=P1RJNSLd83EWzgeA0sG62A,44.94865,-93.28728,"600 W Lake St Minneapolis, MN 55408",(612) 871-4055,"['Japanese', 'Sushi Bars']",['delivery'],3.5,311
219,Q6YxgxXAmKzoKMrbL8IosQ,The Wienery,https://s3-media1.fl.yelpcdn.com/bphoto/It8fmVZC5owBxVSZ9KSxkQ/o.jpg,https://www.yelp.com/biz/the-wienery-minneapolis?adjust_creative=P1RJNSLd83EWzgeA0sG62A&utm_campaign=yelp_api_v3&utm_medium=api_v3_business_search&utm_source=P1RJNSLd83EWzgeA0sG62A,44.96965,-93.24749,"414 Cedar Ave S Minneapolis, MN 55467",(612) 333-5798,"['Hot Dogs', 'Diners', 'Breakfast & Brunch']",[],4.0,198
220,IQpWgpVj6Z4BzvcdATBI_Q,Momo Sushi,https://s3-media1.fl.yelpcdn.com/bphoto/ZjCBS_U048gzluQs9tZgTw/o.jpg,https://www.yelp.com/biz/momo-sushi-minneapolis-2?adjust_creative=P1RJNSLd83EWzgeA0sG62A&utm_campaign=yelp_api_v3&utm_medium=api_v3_business_search&utm_source=P1RJNSLd83EWzgeA0sG62A,45.00734,-93.24697,"1839 Central Ave NE Minneapolis, MN 55418",(612) 789-9190,"['Japanese', 'Sushi Bars', 'Himalayan/Nepalese']",['delivery'],4.5,66
221,2JAJ9Rd7gaMFC8MNfgI3jg,Raising Cane's Chicken Fingers,https://s3-media3.fl.yelpcdn.com/bphoto/UJ3RfH3P6zE4mbcnkh-nTg/o.jpg,https://www.yelp.com/biz/raising-canes-chicken-fingers-minneapolis-2?adjust_creative=P1RJNSLd83EWzgeA0sG62A&utm_campaign=yelp_api_v3&utm_medium=api_v3_business_search&utm_source=P1RJNSLd83EWzgeA0sG62A,44.9738128,-93.2262807,"825 Washington Ave SE Ste 104 Minneapolis, MN 55414",(612) 378-3243,['Fast Food'],['delivery'],4.0,145
222,OXwvIPaHeEcUDj7uOGLhKg,P.S. Steak,https://s3-media2.fl.yelpcdn.com/bphoto/sOST7e1bP0LAylbcZGz_hQ/o.jpg,https://www.yelp.com/biz/p-s-steak-minneapolis?adjust_creative=P1RJNSLd83EWzgeA0sG62A&utm_campaign=yelp_api_v3&utm_medium=api_v3_business_search&utm_source=P1RJNSLd83EWzgeA0sG62A,44.96739,-93.28712,"510 Groveland Ave Minneapolis, MN 55403",(612) 886-1620,['Steakhouses'],['delivery'],4.5,61
223,dXTfnyaz_Hrn7imyrrME4A,Lago Tacos - Uptown,https://s3-media1.fl.yelpcdn.com/bphoto/NYEm25gqaAGAFsbPXtmmoA/o.jpg,https://www.yelp.com/biz/lago-tacos-uptown-minneapolis?adjust_creative=P1RJNSLd83EWzgeA0sG62A&utm_campaign=yelp_api_v3&utm_medium=api_v3_business_search&utm_source=P1RJNSLd83EWzgeA0sG62A,44.949925,-93.28765,"2901 Lyndale Ave S Minneapolis, MN 55408",(612) 353-6736,['Mexican'],"['pickup', 'delivery']",3.5,313
224,r8YD1Wbqp9iq-JFgTZ_Viw,Hong Kong Noodle,https://s3-media2.fl.yelpcdn.com/bphoto/dVQn6NOUat7LAEpQX4EZjQ/o.jpg,https://www.yelp.com/biz/hong-kong-noodle-minneapolis-2?adjust_creative=P1RJNSLd83EWzgeA0sG62A&utm_campaign=yelp_api_v3&utm_medium=api_v3_business_search&utm_source=P1RJNSLd83EWzgeA0sG62A,44.9738173366585,-93.2254046201705,"901 Washington Ave SE Minneapolis, MN 55414",(612) 379-9472,"['Chinese', 'Noodles', 'Seafood']",['delivery'],3.5,329
225,OYYF4VOrE_i1lqTIr94Sog,Boiler Room Coffee,https://s3-media2.fl.yelpcdn.com/bphoto/yZRf1gmp9zPb4zaGXbq5Jw/o.jpg,https://www.yelp.com/biz/boiler-room-coffee-minneapolis?adjust_creative=P1RJNSLd83EWzgeA0sG62A&utm_campaign=yelp_api_v3&utm_medium=api_v3_business_search&utm_source=P1RJNSLd83EWzgeA0sG62A,44.9644248,-93.2729259,"1830 3rd Ave S Minneapolis, MN 55404",(612) 886-7085,"['Coffee & Tea', 'Breakfast & Brunch', 'Cafes']",[],4.0,117
226,eZoZc9NTjYg6bo1-wGPg-w,The Mill Northeast,https://s3-media3.fl.yelpcdn.com/bphoto/XpKh3JU6DpqnWA_HtGEBsA/o.jpg,https://www.yelp.com/biz/the-mill-northeast-minneapolis?adjust_creative=P1RJNSLd83EWzgeA0sG62A&utm_campaign=yelp_api_v3&utm_medium=api_v3_business_search&utm_source=P1RJNSLd83EWzgeA0sG62A,45.007732,-93.247107,"1851 Central Ave NE Minneapolis, MN 55418",(612) 315-2340,['American (New)'],['delivery'],4.0,217
